[
{"type":"header","version":"5.0.3","comment":"Export to JSON plugin for PHPMyAdmin"},
{"type":"database","name":"final"},
{"type":"table","name":"itinlist","database":"final","data":
[
{"id":"1","place_id":"ChIJy02Q7MEjaDQRVuRcRdQpwc0","title":"國立中央大學","lat":"24.9678305","lng":"121.1949833","address":"桃園中壢區中大路300號","city":"桃園"},
{"id":"2","place_id":"ChIJ6xk1jsEjaDQRRt2bAZcNHvY","title":"浯陽科技有限公司","lat":"24.9684297","lng":"121.1959266","address":"桃園中壢區中大路300號","city":"桃園"},
{"id":"3","place_id":"ChIJy02Q7MEjaDQRuTW-JBd9mWc","title":"全家便利商店 FamilyMart -","lat":"24.9705479","lng":"121.1957783","address":"桃園中壢區中大路300號","city":"桃園"},
{"id":"4","place_id":"ChIJrQdF-sEjaDQR5ITw-drFWi4","title":"中央大學中文系系辦公室","lat":"24.9689026","lng":"121.1945355","address":"桃園中壢區中大路300號文學二館313 室","city":"桃園"},
{"id":"5","place_id":"ChIJZwWEC-ojaDQRVs1qbCQVQ-E","title":"小中大電視台","lat":"24.9683863","lng":"121.1939138","address":"桃園中壢區中大路","city":"桃園"},
{"id":"6","place_id":"ChIJy02Q7MEjaDQRRMcYzSU5-gM","title":"國立中央大學藝文中心","lat":"24.9694597","lng":"121.1952003","address":"桃園中壢區中大路300號103室一樓人文社會科學大樓","city":"桃園"},
{"id":"7","place_id":"ChIJUbpPeMEjaDQRFZMoz5cLQUk","title":"新陶芳庭園餐廳","lat":"24.9691156","lng":"121.1986983","address":"桃園中壢區中大路170巷19-5號","city":"桃園"},
{"id":"8","place_id":"ChIJ6xk1jsEjaDQRO1i0aGe6-V8","title":"107電影院","lat":"24.9692905","lng":"121.1952617","address":"桃園中壢區中大路300號","city":"桃園"},
{"id":"9","place_id":"ChIJc0ObH8IjaDQRm3FuSY8wOt8","title":"國立中央大學黑盒子表演藝術中心","lat":"24.9693088","lng":"121.1953272","address":"桃園中壢區中大路300號","city":"桃園"},
{"id":"10","place_id":"ChIJ81Y-o_8jaDQRfO_8iMNxChk","title":"好時好食","lat":"24.9693148","lng":"121.1952688","address":"桃園中壢區中大路300號 （中央大學 工程二館 資策會","city":"桃園"},
{"id":"11","place_id":"ChIJZZIkH8IjaDQRoBRjjdW6Vfo","title":"學習與教學研究所","lat":"24.9694626","lng":"121.1952341","address":"桃園中壢區過嶺路一段26巷","city":"桃園"},
{"id":"12","place_id":"ChIJSSEy9nsjaDQR-WyBuT3-z70","title":"國立中央大學文學三館","lat":"24.9694114","lng":"121.1951958","address":"桃園中壢區五權里","city":"桃園"},
{"id":"13","place_id":"ChIJf5YDi8EjaDQRElkPYiuS2LY","title":"中大警衛室","lat":"24.968938","lng":"121.195526","address":"桃園Taiwan","city":"桃園"},
{"id":"14","place_id":"ChIJw47EHsIjaDQR5zkFRc0vYW4","title":"中央大學通識教育中心","lat":"24.9694826","lng":"121.1951433","address":"桃園中壢區中大路300號","city":"桃園"},
{"id":"15","place_id":"ChIJAydui8EjaDQROoS9ZLthihY","title":"中央大學警衛室","lat":"24.968847","lng":"121.195526","address":"桃園Taiwan","city":"桃園"},
{"id":"16","place_id":"ChIJ7xo1LMIjaDQRwM73yYPyayU","title":"中央大學圓環停車場","lat":"24.9689728","lng":"121.1963723","address":"桃園中壢區中大路300號","city":"桃園"},
{"id":"17","place_id":"ChIJredAPsIjaDQRftCQtP_u7fI","title":"國立中央大學男九舍","lat":"24.9702276","lng":"121.1954749","address":"桃園中壢區中大路320桃園市中壢區中大路300號","city":"桃園"},
{"id":"18","place_id":"ChIJmUihOMIjaDQRBtAXmDv3v1A","title":"圖美數位輸出影印中心 2F","lat":"24.9703692","lng":"121.1958041","address":"桃園中壢區中大路300號","city":"桃園"},
{"id":"19","place_id":"ChIJy0QTIOgjaDQR4r49N-UHUV8","title":"賈董的麵","lat":"24.9703867","lng":"121.1957101","address":"桃園中壢區中大路320號","city":"桃園"},
{"id":"20","place_id":"ChIJ_cLr78MjaDQRO6sddGAaz5I","title":"桃園市民間療法協會","lat":"24.96907509999999","lng":"121.1988846","address":"桃園中壢區中大路170巷19之5號","city":"桃園"},
{"id":"21","place_id":"ChIJs7W0ZysjaDQRFKzia6MqjWw","title":"家適美隱形鐵窗(中壢)","lat":"24.97044","lng":"121.196951","address":"桃園中壢區河南路137號","city":"桃園"},
{"id":"22","place_id":"ChIJn-ZHx8MjaDQReI8IfEChSto","title":"昇詠建設股份有限公司","lat":"24.9698056","lng":"121.1978591","address":"桃園中壢區中大路170巷37號","city":"桃園"},
{"id":"23","place_id":"ChIJFY4vR8IjaDQRGaonznxxi9w","title":"四海遊龍-中央大學店","lat":"24.9704203","lng":"121.1957712","address":"桃園No, No. 300, 中大路, 中壢區","city":"桃園"},
{"id":"24","place_id":"ChIJrZ86R8IjaDQRESqz7QTU28g","title":"金盃美而美","lat":"24.9705102","lng":"121.1957796","address":"桃園中壢區中大路300號","city":"桃園"},
{"id":"25","place_id":"ChIJzVi3QMIjaDQR6XY-OGaz15o","title":"中央大學第九宿舍餐廳","lat":"24.9705215","lng":"121.1956981","address":"桃園中壢區中大路300號","city":"桃園"},
{"id":"26","place_id":"ChIJDyz9ksQjaDQRp-iaAeI2ekw","title":"百樂門音樂玩家協會","lat":"24.9716621","lng":"121.2008457","address":"桃園中壢區中正路1308-1號","city":"桃園"},
{"id":"27","place_id":"ChIJG8iK5cMjaDQRt-U116jEdEk","title":"百昌不動產股份有限公司","lat":"24.9690469","lng":"121.1986893","address":"桃園臺灣省桃園市中壢區中大路170巷19號","city":"桃園"},
{"id":"28","place_id":"ChIJYWIdaucjaDQRk-G7e3Hv2rQ","title":"財團法人中壢教會聚會所中央大學聚會所","lat":"24.9706476","lng":"121.1997104","address":"桃園中壢市五權里上三座屋3鄰36號之19","city":"桃園"},
{"id":"29","place_id":"ChIJZ4rK98MjaDQRaLTulu7lqaM","title":"福祿貝爾崇皓幼兒園-中大分校","lat":"24.9690005","lng":"121.1995861","address":"桃園中壢區中大路150巷125號","city":"桃園"},
{"id":"30","place_id":"ChIJUesa0PEjaDQRpVFgSSzZDLs","title":"中大路木棉花道","lat":"24.96823119999999","lng":"121.1984373","address":"桃園中壢區中大路","city":"桃園"},
{"id":"31","place_id":"ChIJU3yPDsQjaDQR7v6F2bKg8Fs","title":"曜園社區管理委員會","lat":"24.9689979","lng":"121.200176","address":"桃園中壢區中大路150巷27號","city":"桃園"},
{"id":"32","place_id":"ChIJmSyyZsEjaDQRmr5qIFFMEcw","title":"中央大學[樂活]","lat":"24.968168","lng":"121.197929","address":"桃園Taiwan","city":"桃園"},
{"id":"33","place_id":"ChIJ-18nacQjaDQRhlk26KjMAhk","title":"速安達電器宅配服務股份有限公司","lat":"24.969725","lng":"121.200806","address":"桃園中壢市五權里上三座屋5鄰48號之1","city":"桃園"},
{"id":"34","place_id":"ChIJ8ZPXVMEjaDQRQOWi3u2nS-o","title":"美正投資股份有限公司","lat":"24.9682042","lng":"121.1996344","address":"桃園中壢區中大路91號","city":"桃園"},
{"id":"35","place_id":"ChIJbZjzXsMjaDQR-D5hLruY6Q8","title":"吉昌車業有限公司","lat":"24.9723862","lng":"121.1994079","address":"桃園中壢區中正路1437-1號","city":"桃園"},
{"id":"36","place_id":"ChIJ3ZEExtwjaDQREr5AH0-Xm1U","title":"台灣中油惠暘站","lat":"24.9745212","lng":"121.197875","address":"桃園中壢區中正路二段38號","city":"桃園"},
{"id":"37","place_id":"ChIJ6VSb1NwjaDQRMy3RJr4FfUg","title":"高群企業股份有限公司","lat":"24.9741901","lng":"121.1971894","address":"桃園中壢區大享街45號","city":"桃園"},
{"id":"38","place_id":"ChIJ6cXEN9sjaDQR0Dnc0jroy5I","title":"乘新堡科技有限公司","lat":"24.97369","lng":"121.20115","address":"桃園中壢區中正路1274巷51號","city":"桃園"},
{"id":"39","place_id":"ChIJO2WINtsjaDQRIG6XOtmONrE","title":"鈺功有限公司","lat":"24.9734919","lng":"121.201294","address":"桃園中壢區中正路1274巷47號","city":"桃園"},
{"id":"40","place_id":"ChIJAcTJOdsjaDQR3kuRRANB2eQ","title":"元生實業","lat":"24.9737832","lng":"121.2012358","address":"桃園中壢區中正路1274巷58號","city":"桃園"},
{"id":"41","place_id":"ChIJYXFxM9sjaDQR0K0Garme4uo","title":"精鵬企業有限公司","lat":"24.9732144","lng":"121.2017214","address":"桃園No. 39號, 中正路·1274巷, 中壢區","city":"桃園"},
{"id":"42","place_id":"ChIJPbVlTsMjaDQRqJeV8ZpYTNk","title":"三座厝","lat":"24.973289","lng":"121.19881","address":"桃園Taiwan","city":"桃園"},
{"id":"43","place_id":"ChIJUUhVTsMjaDQRTrRBGZWnois","title":"詠隆國際企業","lat":"24.9731883","lng":"121.1987811","address":"桃園Taiwan","city":"桃園"},
{"id":"44","place_id":"ChIJQcjpTsMjaDQR7tvjtfdYMWI","title":"永新玻璃公司","lat":"24.973261","lng":"121.1986919","address":"桃園中壢區中正路1471之1號","city":"桃園"},
{"id":"45","place_id":"ChIJ1YGmFF4jaDQRxhAcw6jYYOs","title":"7-ELEVEN 鋒彩門市","lat":"24.9724369","lng":"121.1993518","address":"桃園中壢區中正路1439-1號","city":"桃園"},
{"id":"46","place_id":"ChIJcXiKTsMjaDQRT0IcYZ-NOzA","title":"三座厝","lat":"24.97326","lng":"121.198654","address":"桃園Taiwan","city":"桃園"},
{"id":"47","place_id":"ChIJTdgBTsMjaDQRcJxJCwUUWug","title":"八古文鬆餅臺北德芳美","lat":"24.9732988","lng":"121.1989544","address":"桃園中壢區中正路1462號","city":"桃園"},
{"id":"48","place_id":"ChIJN5GtWcMjaDQRFgqMED1DSQs","title":"好朋友烏醋麵","lat":"24.9727303","lng":"121.1994769","address":"桃園中壢區中正路1418號","city":"桃園"},
{"id":"49","place_id":"ChIJKbNKTMMjaDQRfi3YRtFleNM","title":"三座厝","lat":"24.97335199999999","lng":"121.198913","address":"桃園Taiwan","city":"桃園"},
{"id":"50","place_id":"ChIJI-AHSMMjaDQR0joKEkBWOXk","title":"竑維有限公司","lat":"24.97314","lng":"121.198284","address":"桃園中壢區中正路1471號","city":"桃園"},
{"id":"51","place_id":"ChIJyxe6TcMjaDQRVzSJkcp-fMY","title":"福德祠","lat":"24.973449","lng":"121.1988262","address":"桃園Taiwan","city":"桃園"},
{"id":"52","place_id":"ChIJqWzjd-kjaDQRMCzixK2VXjw","title":"桃竹苗區域教學資源中心","lat":"24.9701892","lng":"121.1929048","address":"桃園中壢區中大路300號","city":"桃園"},
{"id":"53","place_id":"ChIJJaOqGOojaDQRfQLUY0eV4hk","title":"中央松韻口琴社","lat":"24.969481","lng":"121.192516","address":"桃園中壢區中大路300號據德樓1F松韻口琴社","city":"桃園"},
{"id":"54","place_id":"ChIJT-DgUOojaDQRrWJW3SHNzEQ","title":"TibaMe（原資策會中壢中心）","lat":"24.967788","lng":"121.191635","address":"桃園中壢區中大路300號工程二館(資策會大樓","city":"桃園"},
{"id":"55","place_id":"ChIJN-Sd8ekjaDQRqsdSy50UiZs","title":"綜教館","lat":"24.9702227","lng":"121.1929365","address":"桃園中壢區中大路300號","city":"桃園"},
{"id":"56","place_id":"ChIJO1RnAusjaDQRgReMYuasp8Y","title":"YouBike 中央大學依仁堂","lat":"24.96711649999999","lng":"121.1909614","address":"桃園中壢區中大路300號松苑餐廳前方廣場","city":"桃園"},
{"id":"57","place_id":"ChIJRQFVHOsjaDQRS6FjucjLMbY","title":"彥辰國際有限公司","lat":"24.9667638","lng":"121.1908938","address":"桃園中壢區中大路300號","city":"桃園"},
{"id":"58","place_id":"ChIJVRg1jsEjaDQRVjpAHoAbipw","title":"國立中央大學依仁堂","lat":"24.9682669","lng":"121.1908966","address":"桃園中壢區中大路300號","city":"桃園"},
{"id":"59","place_id":"ChIJQxlwBOsjaDQRoWQG1Fzc7ek","title":"中央大學創新育成中心","lat":"24.9667439","lng":"121.1908473","address":"桃園中壢區中大路300號","city":"桃園"},
{"id":"60","place_id":"ChIJvTdZc-ojaDQRgCI6T4HGQqw","title":"中央大學諮商中心","lat":"24.9681836","lng":"121.1935708","address":"桃園中壢區中央路239巷1號","city":"桃園"},
{"id":"61","place_id":"ChIJ_ToZ4MEjaDQRzW4bh--VCHE","title":"國立中央大學中正圖書館","lat":"24.9681818","lng":"121.1936824","address":"桃園號, No. 300, 中大路, 中壢區","city":"桃園"},
{"id":"62","place_id":"ChIJz0H0dOojaDQRtGkMzb-Jei0","title":"國立中央大學圖書館視聽資料室","lat":"24.9680647","lng":"121.1936925","address":"桃園號, No. 300, 中大路, 中壢區","city":"桃園"},
{"id":"63","place_id":"ChIJHyS2BuojaDQRvpp5JdTnfRM","title":"中央大學太極銅雕","lat":"24.9691893","lng":"121.1936751","address":"桃園桃園區","city":"桃園"},
{"id":"64","place_id":"ChIJN14WOJIjaDQRBIdziAvWRH8","title":"悅盟先進化學股份有限公司","lat":"24.9676886","lng":"121.1929975","address":"桃園中壢區中大路300號E333室工程一館","city":"桃園"},
{"id":"65","place_id":"ChIJ47GSzuojaDQRe-caIy9hlpk","title":"中央大學附幼","lat":"24.9660006","lng":"121.1918899","address":"桃園中壢區中大新村26號","city":"桃園"},
{"id":"66","place_id":"ChIJtR343ZQjaDQRDpfJB6j1FDw","title":"Sidewalk人行道蔬食-中大店","lat":"24.9643716","lng":"121.192378","address":"桃園中壢區中央路216巷39號","city":"桃園"},
{"id":"67","place_id":"ChIJBfgJJusjaDQRgui-0Z46p6Y","title":"中央大學後門機車停車場","lat":"24.9655299","lng":"121.190759","address":"桃園平鎮區中央路185號","city":"桃園"},
{"id":"68","place_id":"ChIJLVL4K-sjaDQRU46iaQCVwNA","title":"清心福全中央店-珍珠奶茶手搖飲料專賣店","lat":"24.9651453","lng":"121.190901","address":"桃園平鎮區中央路171號","city":"桃園"},
{"id":"69","place_id":"ChIJYe70D0kiaDQRzRseJvpm0zE","title":"八方雲集中壢中央店","lat":"24.964684","lng":"121.1908871","address":"桃園中壢區中央路226之1號","city":"桃園"},
{"id":"70","place_id":"ChIJN8qm1ZQjaDQRK2sR2uiOwXM","title":"國泰世華銀行ATM(全家超商-中壢龍凱店","lat":"24.964676","lng":"121.190969","address":"桃園中壢區中央路218號號1樓","city":"桃園"},
{"id":"71","place_id":"ChIJncsOM5UjaDQRaDYr_GmaDTA","title":"迷路","lat":"24.9645958","lng":"121.190714","address":"桃園平鎮區中央路151號","city":"桃園"},
{"id":"72","place_id":"ChIJE71NKpUjaDQRYxJcpmvGDl0","title":"Backdoor Café\/中壢美食\/中","lat":"24.964553","lng":"121.1912544","address":"桃園中壢區中央路216巷9號","city":"桃園"},
{"id":"73","place_id":"ChIJzYeKKZUjaDQRA4mtlpIXAPs","title":"街角216","lat":"24.96448999999999","lng":"121.1910724","address":"桃園中壢區中央路216巷6號","city":"桃園"},
{"id":"74","place_id":"ChIJ75lSZOsjaDQR-qbmkb8atyo","title":"中央大學機械系","lat":"24.9676739","lng":"121.1885331","address":"桃園中壢區中大路300號","city":"桃園"},
{"id":"75","place_id":"ChIJA40KLOsjaDQRFItiVwv0k_g","title":"7-ELEVEN 學央門市","lat":"24.9654829","lng":"121.1910034","address":"桃園平鎮區中央路187號","city":"桃園"},
{"id":"76","place_id":"ChIJ8QNmG-sjaDQRCwvCMDf0kyw","title":"風起科技","lat":"24.9668163","lng":"121.1906806","address":"桃園平鎮區雙連里","city":"桃園"},
{"id":"77","place_id":"ChIJDXjgHOsjaDQRPXp80bzOvQU","title":"松果館 （國際事務處）","lat":"24.966786","lng":"121.1908943","address":"桃園平鎮區雙連里","city":"桃園"},
{"id":"78","place_id":"ChIJs3pDHesjaDQRNmvodsPETz8","title":"中央大學國際事務處","lat":"24.9667733","lng":"121.1910288","address":"桃園平鎮區雙連里","city":"桃園"},
{"id":"79","place_id":"ChIJR7Yh3JQjaDQRmpIm-Qd6sQ0","title":"馬爾波咖啡\/義大利麵\/手工Pizza","lat":"24.9638422","lng":"121.1907758","address":"桃園中壢區中央路178號","city":"桃園"},
{"id":"80","place_id":"ChIJj6touqwjaDQRmbJitpDdpt0","title":"名廬學舍","lat":"24.9637814","lng":"121.1905533","address":"桃園平鎮區中央路115號","city":"桃園"},
{"id":"81","place_id":"ChIJhXqM9ZQjaDQRy9hljmhGs30","title":"賀田農業科技股份有限公司","lat":"24.962467","lng":"121.189905","address":"桃園平鎮區中央路65號","city":"桃園"},
{"id":"82","place_id":"ChIJ69AtOZQjaDQR7QggsOY-x18","title":"桃園市召會10會所","lat":"24.9635306","lng":"121.1911486","address":"桃園中壢區中央路168巷9號","city":"桃園"},
{"id":"83","place_id":"ChIJfSkksOojaDQRHR34pA7TDIg","title":"來客","lat":"24.9648947","lng":"121.1932508","address":"桃園中壢區五興路331巷28-2號","city":"桃園"},
{"id":"84","place_id":"ChIJ8f9WLJUjaDQRTIflRDV2l60","title":"田園美食屋","lat":"24.9640919","lng":"121.1904495","address":"桃園中壢區中央路131號","city":"桃園"},
{"id":"85","place_id":"ChIJXW_V4ZQjaDQRnwGq0K2POFk","title":"鑫紅樓","lat":"24.9633231","lng":"121.1913262","address":"桃園中壢區中央路168巷17號","city":"桃園"},
{"id":"86","place_id":"ChIJq3lm5ZQjaDQRJ0FGetG4-Os","title":"土地公(圓湖伯公)","lat":"24.9630891","lng":"121.190447","address":"桃園中壢區中央路93-99號","city":"桃園"},
{"id":"87","place_id":"ChIJw0kP3ZQjaDQRrFFNOWLWr4s","title":"迪克有限公司","lat":"24.9636968","lng":"121.1905262","address":"桃園平鎮區中央路115號","city":"桃園"},
{"id":"88","place_id":"ChIJAxQLF5QjaDQRsOmtnUQ3mW0","title":"豬哥香雞排","lat":"24.960421","lng":"121.1894245","address":"桃園平鎮區民族路雙連一段22號","city":"桃園"},
{"id":"89","place_id":"ChIJRQrmr7kfaDQRPd90EJidYrg","title":"中國信託商業銀行ATM 統一學屋","lat":"24.960475","lng":"121.1901089","address":"桃園中壢區民族路三段402號","city":"桃園"},
{"id":"90","place_id":"ChIJaXDa_5MjaDQRuD_FuMbnM7c","title":"日通專業快遞","lat":"24.9602339","lng":"121.188087","address":"桃園平鎮區民族路雙連一段126號","city":"桃園"},
{"id":"91","place_id":"ChIJNUMj_pMjaDQRLLwupaou0BI","title":"駿朋環保有限公司","lat":"24.96027","lng":"121.18797","address":"桃園平鎮區民族路雙連一段126號","city":"桃園"},
{"id":"92","place_id":"ChIJT3f2WZEjaDQRS9exsIxv09Y","title":"薪葉普洱茶","lat":"24.9600949","lng":"121.1879262","address":"桃園平鎮區民族路雙連一段95號","city":"桃園"},
{"id":"93","place_id":"ChIJHa-sJJQjaDQR_nlTvUAB8Nw","title":"雙連坡","lat":"24.96041799999999","lng":"121.1900325","address":"桃園Taiwan","city":"桃園"},
{"id":"94","place_id":"ChIJHTNVZJQjaDQRe7m23_1PNjQ","title":"玄御奇企業有限公司","lat":"24.9621275","lng":"121.1891212","address":"桃園臺灣省桃園市平鎮區中央路51巷25號","city":"桃園"},
{"id":"95","place_id":"ChIJS-tEZJQjaDQRraQQdSjLI8Y","title":"加立針織股份有限公司","lat":"24.96217399999999","lng":"121.189165","address":"桃園平鎮區中央路51巷23號","city":"桃園"},
{"id":"96","place_id":"ChIJH9q0fbUjaDQRZGv0Y36mZ4I","title":"FarmerKing汎瑪植物工廠","lat":"24.962405","lng":"121.190016","address":"桃園平鎮區中央路","city":"桃園"},
{"id":"97","place_id":"ChIJ8a3xWJQjaDQRMnCFJrcrEDE","title":"廖德助","lat":"24.962274","lng":"121.190151","address":"桃園中壢區中央路53號","city":"桃園"},
{"id":"98","place_id":"ChIJC85fpk8jaDQRlz_O3YkLXRQ","title":"十二籃‧選 桃園總店","lat":"24.9623405","lng":"121.1901329","address":"桃園平鎮區中央路65號","city":"桃園"},
{"id":"99","place_id":"ChIJv9mKDqwjaDQRzsSYd1gLaLw","title":"桃園市天堂敬拜教會","lat":"24.962332","lng":"121.1901796","address":"桃園平鎮區中央路65號","city":"桃園"},
{"id":"100","place_id":"ChIJZVG4ugAjaDQR-LLdLGRE1qg","title":"大學之星","lat":"24.9612269","lng":"121.1900128","address":"桃園平鎮區中央路23號","city":"桃園"},
{"id":"101","place_id":"ChIJDyKrND8jaDQRfH-cgbJs65U","title":"稻穀設計","lat":"24.9629333","lng":"121.1902062","address":"桃園平鎮區中央路89號","city":"桃園"},
{"id":"102","place_id":"ChIJjWbo9pQjaDQR33EWDHUpCSM","title":"豐駿富興業有限公司","lat":"24.962631","lng":"121.190138","address":"桃園平鎮區中央路75號","city":"桃園"},
{"id":"103","place_id":"ChIJo6KGiJMjaDQRGQwhK1fb9l8","title":"合民企業有限公司","lat":"24.9621333","lng":"121.1879281","address":"桃園平鎮區雙福路一段82號","city":"桃園"},
{"id":"104","place_id":"ChIJo6KGiJMjaDQRPaRQ-Sr4AFo","title":"保其鋼鐵有限公司","lat":"24.9621333","lng":"121.1879281","address":"桃園平鎮區雙福路一段82號","city":"桃園"},
{"id":"105","place_id":"ChIJScrknZMjaDQRZ3h-PQiQe5Q","title":"立益紡織","lat":"24.9630343","lng":"121.1871737","address":"桃園65 號, 雙福路一段, 平鎮區","city":"桃園"},
{"id":"106","place_id":"ChIJ_7WPjpMjaDQRfniT2CRcDxg","title":"台灣大昌華嘉供應鏈服務股份有限公司","lat":"24.9620033","lng":"121.1877211","address":"桃園臺灣省桃園市平鎮區雙福路一段92號","city":"桃園"},
{"id":"107","place_id":"ChIJScrknZMjaDQR_CsgC-rQDNE","title":"源興冷凍庫","lat":"24.9620033","lng":"121.1877211","address":"桃園平鎮區雙福路一段160號","city":"桃園"},
{"id":"108","place_id":"ChIJR_UL-pQjaDQR7521zTqSdXw","title":"換拉鍊修改衣褲","lat":"24.9627548","lng":"121.1905865","address":"桃園中壢區中央路122號","city":"桃園"},
{"id":"109","place_id":"ChIJbyDkruojaDQRxl33DHAMPBk","title":"TKB數位學堂(平鎮館)","lat":"24.964749","lng":"121.193475","address":"桃園中壢區五興路329號","city":"桃園"},
{"id":"110","place_id":"ChIJH_YfouojaDQR3ABiJTWn_lU","title":"無敵蛋餅","lat":"24.9653599","lng":"121.1935715","address":"桃園中壢區五興路347號","city":"桃園"},
{"id":"111","place_id":"ChIJT9tlm8wjaDQR4Nq5WdH29sM","title":"皇展國際有限公司","lat":"24.964529","lng":"121.18934","address":"桃園平鎮區中央路149巷26-8號","city":"桃園"},
{"id":"112","place_id":"ChIJUe7kupQjaDQRFT1rXdd-igQ","title":"鉅大撞球場","lat":"24.9644959","lng":"121.189061","address":"桃園平鎮區中央路149巷26-1號","city":"桃園"},
{"id":"113","place_id":"ChIJ4dNMFcIjaDQRgB_vmQwrtWM","title":"中央大學烏龜池","lat":"24.9704969","lng":"121.1953189","address":"桃園26、320, 中壢區","city":"桃園"},
{"id":"114","place_id":"ChIJqan5ZcIjaDQRz1oOn0al6YU","title":"中央大學男十二舍","lat":"24.9712527","lng":"121.1949844","address":"桃園桃園區","city":"桃園"},
{"id":"115","place_id":"ChIJyWBSacIjaDQRETrR5blXySY","title":"中大會館","lat":"24.9707907","lng":"121.1949416","address":"桃園中壢區中大路300號2鄰","city":"桃園"},
{"id":"116","place_id":"ChIJG1oMl98jaDQRIlRWrA9BMxY","title":"中大 iiCafe","lat":"24.9706239","lng":"121.1944023","address":"桃園中壢區中大路300號中央大學男研舍","city":"桃園"},
{"id":"117","place_id":"ChIJx9pRc8IjaDQRg3IIuSMW1HM","title":"Male Dormitory","lat":"24.9706878","lng":"121.1943452","address":"桃園中壢區五權里","city":"桃園"},
{"id":"118","place_id":"ChIJfUySD8IjaDQRVR6gd2ehCZk","title":"國鼎圖書資料館","lat":"24.97006129999999","lng":"121.194556","address":"桃園中壢區","city":"桃園"},
{"id":"119","place_id":"ChIJBymdC8IjaDQRXl4g8LNX4U0","title":"郵局ATM","lat":"24.9705685","lng":"121.1942561","address":"桃園中壢區五權里","city":"桃園"},
{"id":"120","place_id":"ChIJVZjLj8EjaDQRgD0AW-ryNeQ","title":"Cajuii最專業的工業產品搜尋平台","lat":"24.9684297","lng":"121.1959266","address":"桃園中壢區中大路300號 育成中心323室","city":"桃園"},
{"id":"121","place_id":"ChIJ6xk1jsEjaDQRDCX-POqwvCk","title":"睿光照明有限公司","lat":"24.9684297","lng":"121.1959266","address":"桃園中壢區中大路300號","city":"桃園"},
{"id":"122","place_id":"ChIJ6xk1jsEjaDQRTTsdBl1QIyI","title":"中國地球物理學會","lat":"24.9684297","lng":"121.1959266","address":"桃園中壢區中大路300號","city":"桃園"},
{"id":"123","place_id":"ChIJ6xk1jsEjaDQRXj9zKtutt14","title":"數碼智庫股份有限公司","lat":"24.9684297","lng":"121.1959266","address":"桃園中壢區中大路300號","city":"桃園"},
{"id":"124","place_id":"ChIJVRg1jsEjaDQRJfpjGk02tFI","title":"電動機車充電站(中央大學)","lat":"24.968442","lng":"121.195907","address":"桃園中壢區中大路300號","city":"桃園"},
{"id":"125","place_id":"ChIJTZ8fK_IjaDQRp4M4wQA5v4c","title":"金粟科技工程顧問有限公司","lat":"24.96842","lng":"121.1956658","address":"桃園中壢區中大路300號#國鼎圖書館","city":"桃園"},
{"id":"126","place_id":"ChIJxawQL-sjaDQRy_lBNIn1kwg","title":"拉亞漢堡 中央大學校內店","lat":"24.9655823","lng":"121.1944353","address":"桃園女14舍B1, No. 300號, 中大路, 中壢區","city":"桃園"},
{"id":"127","place_id":"ChIJKZ9AejsiaDQRvntFqpA5KNA","title":"誠和 證件快照機 水啦!","lat":"24.96570579999999","lng":"121.1944778","address":"桃園中壢區中大路300號","city":"桃園"},
{"id":"128","place_id":"ChIJberyuY_VDRQR6yvNEkBxFC4","title":"中央大學郵局","lat":"24.96569049999999","lng":"121.1945518","address":"桃園中壢區中大路300號(中央大學女14舍1樓)","city":"桃園"},
{"id":"129","place_id":"ChIJnyNaI8AjaDQRkxyXm8OiuOE","title":"中央大學郵局ATM","lat":"24.9656437","lng":"121.1946089","address":"桃園中壢區中大路300號","city":"桃園"},
{"id":"130","place_id":"ChIJ6wjNO8AjaDQRNg4THswJdPc","title":"印象剪燙","lat":"24.9657203","lng":"121.1950014","address":"桃園中壢區中大路300號男 11 舍 地下 1 樓","city":"桃園"},
{"id":"131","place_id":"ChIJST6hoOojaDQRn6LjKhiYps4","title":"OK便利商店 中壢雙連店","lat":"24.9652657","lng":"121.1936694","address":"桃園中壢區五興路402號","city":"桃園"},
{"id":"132","place_id":"ChIJnUI4oeojaDQRY37ysn6w5xo","title":"聯邦銀行ATM-OK中壢雙連店","lat":"24.96527489999999","lng":"121.1936822","address":"桃園中壢區五興路402號","city":"桃園"},
{"id":"133","place_id":"ChIJgVgjpuojaDQR6hK-UQrtcQE","title":"霸王香雞排","lat":"24.9649778","lng":"121.1936872","address":"桃園中壢區五興路390號","city":"桃園"},
{"id":"134","place_id":"ChIJ6xk1jsEjaDQRFohCbAZTKKI","title":"敦煌書局 中央營業所","lat":"24.965643","lng":"121.194986","address":"桃園中壢區中大路300號","city":"桃園"},
{"id":"135","place_id":"ChIJk-HnHZUjaDQRm_0Qn13X__Q","title":"Daddys美式餐廳","lat":"24.9637413","lng":"121.1907578","address":"桃園中壢區中央路170號","city":"桃園"},
{"id":"136","place_id":"ChIJV6DxucEjaDQR7GJg2q_P-xg","title":"校史館","lat":"24.9671844","lng":"121.1957362","address":"桃園中壢區中大路300號","city":"桃園"},
{"id":"137","place_id":"ChIJO1_O8MEjaDQRf_11YhoE55c","title":"中央大學崑曲博物館","lat":"24.9689328","lng":"121.1947842","address":"桃園中壢區中大路300號文學二館","city":"桃園"},
{"id":"138","place_id":"ChIJ-Q1F-sEjaDQRjVX0QHDslLk","title":"國立中央大學文學二館","lat":"24.9689012","lng":"121.1945334","address":"桃園中壢區中大路300號","city":"桃園"},
{"id":"139","place_id":"ChIJCSM1-sEjaDQRssU33O24al8","title":"文學院","lat":"24.9689299","lng":"121.1945937","address":"桃園中壢區","city":"桃園"},
{"id":"140","place_id":"ChIJx3da5sEjaDQRa8hsUBNH0Cs","title":"國立中央大學總圖書館","lat":"24.9682827","lng":"121.194434","address":"桃園中壢區中大路300號","city":"桃園"},
{"id":"141","place_id":"ChIJk-3-9oYjaDQRZBm7vsEinS0","title":"哲學沙龍","lat":"24.9692521","lng":"121.1943338","address":"桃園中壢區文學一館A111","city":"桃園"},
{"id":"142","place_id":"ChIJBZ2ZAsIjaDQRToENMrWBkRc","title":"國立中央大學文學一館","lat":"24.9693778","lng":"121.1945522","address":"桃園中壢區中大路300號","city":"桃園"},
{"id":"143","place_id":"ChIJXThOmOwjaDQR7CjnuxxEP5E","title":"國立中央大學網路學習科技研究所","lat":"24.9670982","lng":"121.1876321","address":"桃園中壢區中大路300號","city":"桃園"},
{"id":"144","place_id":"ChIJ5e69vuwjaDQREc_hLLxNcyI","title":"中大材料所","lat":"24.96683459999999","lng":"121.1870817","address":"桃園中壢區中大路300號","city":"桃園"},
{"id":"145","place_id":"ChIJh9Cl9OwjaDQRieiWg6Eaq3A","title":"中壢特高頻雷達站","lat":"24.9682234","lng":"121.1867225","address":"桃園中壢區中大路300號","city":"桃園"},
{"id":"146","place_id":"ChIJZ0FtnewjaDQRNfdqsDr5yfE","title":"中央大學工程五館","lat":"24.9671517","lng":"121.1877112","address":"桃園中壢區中大路300號","city":"桃園"},
{"id":"147","place_id":"ChIJ3VETo-sjaDQRl-KHmbEn_gI","title":"國立中央大學田徑場","lat":"24.968319","lng":"121.189917","address":"桃園中壢區中大路300號","city":"桃園"},
{"id":"148","place_id":"ChIJc4OtyQMjaDQRa5mSLomo_JU","title":"中央大學白色能源屋","lat":"24.9675935","lng":"121.1893121","address":"桃園中壢區中大路300號機械系工程三館旁","city":"桃園"},
{"id":"149","place_id":"ChIJd1YEmewjaDQRviXvTqKtLOs","title":"Network Learning Tec","lat":"24.9671368","lng":"121.1877151","address":"桃園平鎮區","city":"桃園"},
{"id":"150","place_id":"ChIJW7OcWuojaDQRxgltiziFx7U","title":"行動開發學院","lat":"24.9671517","lng":"121.1877072","address":"桃園平鎮區工程五館國立中央大學","city":"桃園"},
{"id":"151","place_id":"ChIJoYeQgewjaDQRlsAH7qfRphs","title":"工程三館(E4)","lat":"24.9679043","lng":"121.1880868","address":"桃園桃園區","city":"桃園"},
{"id":"152","place_id":"ChIJ4XrQWesjaDQRTjRtmk9DnEM","title":"順成油行有限公司","lat":"24.9661237","lng":"121.1884123","address":"桃園平鎮區中央路239巷1號","city":"桃園"},
{"id":"153","place_id":"ChIJE2e0newjaDQRrzyxkTK24rc","title":"國立中央大學資訊工程學系","lat":"24.9668966","lng":"121.1875893","address":"桃園中壢區中大路300號","city":"桃園"},
{"id":"154","place_id":"ChIJXTcHqOwjaDQR7rBTa5D3Msg","title":"大學至善園","lat":"24.9661588","lng":"121.1881938","address":"桃園平鎮區中央路239巷","city":"桃園"},
{"id":"155","place_id":"ChIJRfJcpOwjaDQRAwqa1ZnwFus","title":"前瞻科技研究中心","lat":"24.9664952","lng":"121.1877447","address":"桃園中壢區中大路300號(工程五館C棟)","city":"桃園"},
{"id":"156","place_id":"ChIJ268VHu0jaDQRYGZgoE-xh74","title":"中央大學氣象觀測站","lat":"24.9677623","lng":"121.1852801","address":"桃園平鎮區324","city":"桃園"},
{"id":"157","place_id":"ChIJST_xcOwjaDQRkxCsqVS4zA8","title":"國立中央大學機車停車場(大力館旁)","lat":"24.9690463","lng":"121.1877087","address":"桃園桃園區","city":"桃園"},
{"id":"158","place_id":"ChIJX6lfAecjaDQRxZrfwiSMDJ4","title":"國立中央大學工程四館","lat":"24.9683592","lng":"121.187651","address":"桃園平鎮區","city":"桃園"},
{"id":"159","place_id":"ChIJzSGExhUjaDQRdqHvwyTKN7s","title":"プール","lat":"24.969876","lng":"121.187613","address":"桃園一鄰, No. 30號, Section 1, Yuemei Road, Zhongli District","city":"桃園"},
{"id":"160","place_id":"ChIJS-SViOsjaDQROoUv8k6WN6U","title":"大型力學實驗室","lat":"24.9688217","lng":"121.1884835","address":"桃園中壢區","city":"桃園"},
{"id":"161","place_id":"ChIJm4JxZcIjaDQRRAQkYD3dBUQ","title":"中央大學太空及遙測研究中心","lat":"24.9677677","lng":"121.1870383","address":"桃園中壢區五權里2鄰中大路300號","city":"桃園"},
{"id":"162","place_id":"ChIJrcPT-ewjaDQRfYizXohW3A8","title":"玄盛發農場","lat":"24.9684743","lng":"121.1860428","address":"桃園中壢區大享街一段236號","city":"桃園"},
{"id":"163","place_id":"ChIJ-SLOO-wjaDQRV3WiWyQf9p8","title":"國立中央大學學人宿舍北村E棟","lat":"24.970309","lng":"121.186279","address":"桃園桃園市中壢區大享街一段186巷63號","city":"桃園"},
{"id":"164","place_id":"ChIJ6xk1jsEjaDQRVa0hwImDoNs","title":"國立中央大學攀岩塔","lat":"24.9689734","lng":"121.1894286","address":"桃園中壢區中大路300號","city":"桃園"},
{"id":"165","place_id":"ChIJK11gl-wjaDQRQ4FHLOKZ3OM","title":"Fungo","lat":"24.9672354","lng":"121.1874946","address":"桃園中壢區中央路255號","city":"桃園"},
{"id":"166","place_id":"ChIJQSaJ5ewjaDQRORtlaWPelHE","title":"游離層天線區","lat":"24.9677717","lng":"121.1860523","address":"桃園平鎮區大享街一段","city":"桃園"},
{"id":"167","place_id":"ChIJ0yaXbeojaDQR5kPzPmOaZwA","title":"中央大學客家學院","lat":"24.9709789","lng":"121.1903653","address":"桃園中壢區中央路239巷1號號","city":"桃園"},
{"id":"168","place_id":"ChIJ10sxzcIjaDQROcSXNjKF3kw","title":"中大隨筆","lat":"24.97186739999999","lng":"121.1902768","address":"桃園中壢區大享街","city":"桃園"},
{"id":"169","place_id":"ChIJ3_01lukjaDQRXsTmNfe4ziU","title":"中央大學物理學系","lat":"24.9711857","lng":"121.1919986","address":"桃園中壢區中大路300號","city":"桃園"},
{"id":"170","place_id":"ChIJqSfLv-kjaDQR-xuQ_5AVNwA","title":"中央大學科學教育中心","lat":"24.971261","lng":"121.192338","address":"桃園國立中央大學 科學教育中心, No. 300號, 中大路, 中壢區","city":"桃園"},
{"id":"171","place_id":"ChIJQzL8em0jaDQRuUEltvutl2Y","title":"Nature Fun植物染","lat":"24.971143","lng":"121.1903937","address":"桃園中壢區Unnamed Road","city":"桃園"},
{"id":"172","place_id":"ChIJ4Uzkb-kjaDQR56MaBcO48Ds","title":"CAMRDA 高等模式研發應用中心","lat":"24.9709204","lng":"121.1902415","address":"桃園中壢區中大路300號中央大學客家學院大樓318室H318 室","city":"桃園"},
{"id":"173","place_id":"ChIJ9zLptsYjaDQR--nedVLiczM","title":"四隅位室內設計","lat":"24.9710605","lng":"121.1897975","address":"桃園中壢區大享街470號1樓","city":"桃園"},
{"id":"174","place_id":"ChIJb1-s_bcjaDQRY5w3yKxdf7s","title":"中大雲鼎社區管理委員會","lat":"24.971633","lng":"121.190157","address":"桃園中壢區大享街472-476號","city":"桃園"},
{"id":"175","place_id":"ChIJ1xljfekjaDQRV_E-RAlSW-c","title":"國立中央大學國鼎光電大樓","lat":"24.9702993","lng":"121.190494","address":"桃園中壢區320桃園市中壢區中大路300號","city":"桃園"},
{"id":"176","place_id":"ChIJq6qqqsEjaDQRHL1g_8QsV8c","title":"國立中央大學光電中心","lat":"24.9702811","lng":"121.1904856","address":"桃園中壢區中大路300號","city":"桃園"},
{"id":"177","place_id":"ChIJnzprnOkjaDQRXG84p3Qn2uY","title":"中大湖","lat":"24.9709962","lng":"121.1913647","address":"桃園中壢區中 大湖","city":"桃園"},
{"id":"178","place_id":"ChIJc3CxhOkjaDQRqUXluD7RjaQ","title":"中大松柏亭","lat":"24.970695","lng":"121.1914982","address":"桃園中壢區中大路","city":"桃園"},
{"id":"179","place_id":"ChIJ_w86P-kjaDQRUFVHqoDByBI","title":"宜祿營造有限公司","lat":"24.97198999999999","lng":"121.18934","address":"桃園中壢市大享街550號","city":"桃園"},
{"id":"180","place_id":"ChIJVZ5RF-kjaDQRSXytoFjtPyc","title":"中華電器五金建材行","lat":"24.972368","lng":"121.1899811","address":"桃園中壢區13","city":"桃園"},
{"id":"181","place_id":"ChIJE8v60esjaDQRmRxHR_OI38U","title":"中央大學籃球場","lat":"24.9696138","lng":"121.1906798","address":"桃園平鎮區","city":"桃園"},
{"id":"182","place_id":"ChIJaX9EAekjaDQR6CUAvRi_Zp4","title":"伯爵山莊","lat":"24.972609","lng":"121.190781","address":"桃園桃園市中壢區內厝里三友新村1之2號","city":"桃園"},
{"id":"183","place_id":"ChIJ46Hz8DEjaDQRkHhQI64ZDg0","title":"三友新村","lat":"24.972763","lng":"121.19052","address":"桃園中壢區三友新村","city":"桃園"},
{"id":"184","place_id":"ChIJ07fd--gjaDQRd3bWyBLCFVo","title":"中大逸墅","lat":"24.973323","lng":"121.190696","address":"桃園桃園市中壢區內厝里三友新村6號","city":"桃園"},
{"id":"185","place_id":"ChIJg0tfvOkjaDQRdGRj9AvcAt4","title":"中央大學科四館","lat":"24.97150079999999","lng":"121.191981","address":"桃園號, No. 300, 中大路, 中壢區","city":"桃園"},
{"id":"186","place_id":"ChIJryz-dNgjaDQRAcahPuLg7qA","title":"水悅莊園","lat":"24.9725685","lng":"121.1918626","address":"桃園中壢區大享街218號","city":"桃園"},
{"id":"187","place_id":"ChIJhZbxs-kjaDQRBdJLo7HGLjc","title":"台灣上村股份有限公司","lat":"24.972295","lng":"121.192118","address":"桃園中壢區大享街215巷8號","city":"桃園"},
{"id":"188","place_id":"ChIJG6oLtOkjaDQRFP1yQLAAEEo","title":"豪仕登堡","lat":"24.972298","lng":"121.192168","address":"桃園中壢區大享街215巷6號","city":"桃園"},
{"id":"189","place_id":"ChIJgV4ZlukjaDQR9-23CP_YI-U","title":"國立中央大學科學四館","lat":"24.9712217","lng":"121.1920871","address":"桃園中壢區大享街215巷68號號","city":"桃園"},
{"id":"190","place_id":"ChIJ-Z3BxukjaDQReJo3GDOkl1k","title":"認知神經科學研究所","lat":"24.9714954","lng":"121.1927636","address":"桃園中壢區","city":"桃園"},
{"id":"191","place_id":"ChIJrZbQw-kjaDQRoZ06jn35L6I","title":"國立中央大學科學五館","lat":"24.9714269","lng":"121.192678","address":"桃園號, No. 70, 大享街215巷, 中壢區","city":"桃園"},
{"id":"192","place_id":"ChIJpUszu8IjaDQRCfQxao3mxLY","title":"裕乘股份有限公司","lat":"24.9738096","lng":"121.1949252","address":"桃園中壢區大享街96號","city":"桃園"},
{"id":"193","place_id":"ChIJP7n8yMIjaDQRdAACQ4oUpUE","title":"新轉角手作料理","lat":"24.9738588","lng":"121.1956068","address":"桃園中壢區大享街69號","city":"桃園"},
{"id":"194","place_id":"ChIJtZJb3ukjaDQRyswPPjdKevc","title":"國立中央大學尤努斯社會企業中心","lat":"24.971013","lng":"121.193702","address":"桃園中壢區中大路300號管理二館611辦公室","city":"桃園"},
{"id":"195","place_id":"ChIJ0QdF3ukjaDQRKepI2WG9cXo","title":"中央大學管理二館","lat":"24.9709866","lng":"121.1937128","address":"桃園中壢區中大路300號","city":"桃園"},
{"id":"196","place_id":"ChIJQ6YsdcIjaDQRht-C_S-7l7Q","title":"男研舍","lat":"24.9707932","lng":"121.1940887","address":"桃園中壢區中大路300號","city":"桃園"},
{"id":"197","place_id":"ChIJIQLGBVUjaDQRLO6M5SGll0g","title":"國立中央大學尤努斯社會企業中心","lat":"24.9708734","lng":"121.1935797","address":"桃園中壢區中大路300號管理學院二館611室","city":"桃園"},
{"id":"198","place_id":"ChIJK7C3nU0jaDQRzXMO6bteJNA","title":"台灣丸七釣具店 星凱貿易有限公司","lat":"24.9738711","lng":"121.195675","address":"桃園中壢區大享街69-1號","city":"桃園"},
{"id":"199","place_id":"ChIJ1blXOcMjaDQRs7EOO7LrbSs","title":"鎧鉅實業股份有限公司","lat":"24.9729284","lng":"121.1978878","address":"桃園Taiwan","city":"桃園"},
{"id":"200","place_id":"ChIJt2n1u7cjaDQRBXC5jfiNqS0","title":"開程燈飾有限公司","lat":"24.9741901","lng":"121.1971894","address":"桃園中壢區大享街45-1號","city":"桃園"},
{"id":"201","place_id":"ChIJFS-509wjaDQRpGOwVKxO6tM","title":"武德堂國術館","lat":"24.9742203","lng":"121.1972776","address":"桃園中壢區大享街15號之1號","city":"桃園"},
{"id":"202","place_id":"ChIJH87ES8MjaDQR1-47pLfAjdI","title":"米蘭運通精品傢俱","lat":"24.97348999999999","lng":"121.198581","address":"桃園中壢區中正路1475號","city":"桃園"},
{"id":"203","place_id":"ChIJ-aJ3y9wjaDQREKypF6x9CrA","title":"宏銓汽車","lat":"24.9740393","lng":"121.1979324","address":"桃園Taiwan","city":"桃園"},
{"id":"204","place_id":"ChIJS34KzNwjaDQRPHTvBC4hDiw","title":"高速亮車體美容","lat":"24.9741536","lng":"121.1978807","address":"桃園中壢區","city":"桃園"},
{"id":"205","place_id":"ChIJ94CjTMMjaDQRgefVxWQHKvc","title":"阿彬師","lat":"24.9736571","lng":"121.19863","address":"桃園Taiwan","city":"桃園"},
{"id":"206","place_id":"ChIJ153C8MQjaDQRrjlmoz1oags","title":"7-ELEVEN 大享門市","lat":"24.9707674","lng":"121.2016765","address":"桃園中壢區中正路1262號","city":"桃園"},
{"id":"207","place_id":"ChIJZ915qB4jaDQRtfrceECoQBg","title":"祐榮","lat":"24.97236029999999","lng":"121.1997122","address":"桃園中壢區中正路1434號","city":"桃園"},
{"id":"208","place_id":"ChIJHciRl8QjaDQR7o8eRm0dtNY","title":"油飯","lat":"24.97185949999999","lng":"121.2004368","address":"桃園中壢區112縣道1346-1410號","city":"桃園"},
{"id":"209","place_id":"ChIJmYu398QjaDQRCMo0RRSVrH4","title":"中大配電變電所","lat":"24.971901","lng":"121.2005829","address":"桃園中壢區中正路1312號","city":"桃園"},
{"id":"210","place_id":"ChIJE4RkqcQjaDQROV4U1yR6ylc","title":"桃園魚市場","lat":"24.9728788","lng":"121.1998107","address":"桃園號, No. 1422, 中正路, 中壢區","city":"桃園"},
{"id":"211","place_id":"ChIJEdDvqMQjaDQR7FJHSgY-fxY","title":"立全鋼品有限公司","lat":"24.972878","lng":"121.199897","address":"桃園中壢區中正路1420號","city":"桃園"},
{"id":"212","place_id":"ChIJXe_4qMQjaDQR3wwAAySwv3s","title":"新中興鐵材行","lat":"24.972909","lng":"121.199858","address":"桃園中壢區中正路1422號","city":"桃園"},
{"id":"213","place_id":"ChIJP_K1PMQjaDQR7uMD6jaw2cY","title":"友竹居茶藝館","lat":"24.9684296","lng":"121.2014312","address":"桃園中壢區中大路32號","city":"桃園"},
{"id":"214","place_id":"ChIJLbCtU8QjaDQRHYti7CCcDzk","title":"中大室內裝潢行","lat":"24.96972","lng":"121.202319","address":"桃園中壢區中正路1214號","city":"桃園"},
{"id":"215","place_id":"ChIJPZv3UsQjaDQR96ZWY4nALn8","title":"夢行者活動整合企劃","lat":"24.9696408","lng":"121.2023516","address":"桃園中壢區中正路1210號","city":"桃園"},
{"id":"216","place_id":"ChIJK8RwccYjaDQRhqiUqysH_q0","title":"央大機車","lat":"24.96858989999999","lng":"121.202258","address":"桃園中壢區中正路1215號","city":"桃園"},
{"id":"217","place_id":"ChIJTf1WzsUjaDQRGFMlp9VUs7k","title":"台州企業股份有限公司","lat":"24.9681894","lng":"121.2030507","address":"桃園中壢區中正路1154號","city":"桃園"},
{"id":"218","place_id":"ChIJ_VT48sQjaDQRQ9rkkwzybRo","title":"潤泰公司","lat":"24.970979","lng":"121.2012705","address":"桃園Taiwan","city":"桃園"},
{"id":"219","place_id":"ChIJNfxANcQjaDQRzHSzXeCLIPA","title":"中央大學(中大路口)","lat":"24.96877049999999","lng":"121.202457","address":"桃園Taiwan","city":"桃園"},
{"id":"220","place_id":"ChIJCfJTXsQjaDQRbwYnTwyPBMg","title":"德富玻璃明鏡(有)","lat":"24.970269","lng":"121.201256","address":"桃園中壢區中正路1319號","city":"桃園"},
{"id":"221","place_id":"ChIJHYMcaMQjaDQRtCjPZVrwfJs","title":"和新地政士事務所","lat":"24.9697779","lng":"121.2010806","address":"桃園中壢區中正路1307巷20弄18號","city":"桃園"},
{"id":"222","place_id":"ChIJGbfa-cQjaDQR6nKCNHpd888","title":"日興傢俱","lat":"24.9705238","lng":"121.2018604","address":"桃園Taiwan","city":"桃園"},
{"id":"223","place_id":"ChIJnWpk98QjaDQRf-F730ZjUqU","title":"宏記汽車材料行","lat":"24.9705738","lng":"121.2018585","address":"桃園中壢區中正路1252號","city":"桃園"},
{"id":"224","place_id":"ChIJXXTG-8QjaDQRoGYl2sfxGr0","title":"奕明汽車修理廠-中壢汽車保養廠 | 輪胎","lat":"24.9706354","lng":"121.2017905","address":"桃園中壢區中正路1256號","city":"桃園"},
{"id":"225","place_id":"ChIJk0EuTsQjaDQR9gY_Ah_PbFU","title":"順達輪胎行","lat":"24.9695735","lng":"121.2020251","address":"桃園Taiwan","city":"桃園"},
{"id":"226","place_id":"ChIJNdA8-cQjaDQRLwVUZTjzVyA","title":"潔朋汽車美容中壢中正店","lat":"24.970466","lng":"121.2020999","address":"桃園中壢區中正路1246號","city":"桃園"},
{"id":"227","place_id":"ChIJwXldbcYjaDQR-lAgZAqMI2c","title":"萊爾富便利商店 中壢桃通店","lat":"24.966488","lng":"121.203877","address":"桃園中壢區中正路1096號","city":"桃園"},
{"id":"228","place_id":"ChIJk6O72sUjaDQRXQf0AW32Rjo","title":"騰元工程","lat":"24.9679036","lng":"121.2033979","address":"桃園號, No. 1152, 中正路, 中壢區","city":"桃園"},
{"id":"229","place_id":"ChIJBZmmZcYjaDQRK9e-iBRhCNk","title":"得興電器有限公司","lat":"24.966508","lng":"121.203131","address":"桃園中壢區中正路1073號","city":"桃園"},
{"id":"230","place_id":"ChIJBZmmZcYjaDQRKoWXA_koeIk","title":"Kolin歌林(得興電器有限公司)","lat":"24.966508","lng":"121.203131","address":"桃園中壢區中正路1073號","city":"桃園"},
{"id":"231","place_id":"ChIJX44MfMgjaDQRLk4DtrNCoDU","title":"益合電器有限公司","lat":"24.9663747","lng":"121.2035577","address":"桃園中壢區中正路1043號","city":"桃園"},
{"id":"232","place_id":"ChIJwXldbcYjaDQR4CLjoCtHNoo","title":"國泰世華銀行ATM(萊爾富超商-中壢桃通","lat":"24.966488","lng":"121.203878","address":"桃園中壢區中正路1096號","city":"桃園"},
{"id":"233","place_id":"ChIJv40e9sYjaDQR2pF2dclDorA","title":"錦翔電子有限公司-SMD DIP加工代工","lat":"24.965824","lng":"121.2025929","address":"桃園中壢區中正路1041巷38弄23號","city":"桃園"},
{"id":"234","place_id":"ChIJzZvKBMYjaDQR6LnyT1Yrtgs","title":"五龍工程有限公司","lat":"24.966279","lng":"121.204947","address":"桃園中壢市中正路1062巷26號","city":"桃園"},
{"id":"235","place_id":"ChIJuSek0cUjaDQR1H26vI90X3I","title":"正新","lat":"24.9679056","lng":"121.2030113","address":"桃園Taiwan","city":"桃園"},
{"id":"236","place_id":"ChIJEZTvp4kjaDQRX65siMP5f5g","title":"上味小吃店","lat":"24.9677181","lng":"121.20301","address":"桃園中壢區中正路1136號號, No","city":"桃園"},
{"id":"237","place_id":"ChIJ6zK01sUjaDQRANQ0wJLYDX0","title":"八方輪業有限公司","lat":"24.9677181","lng":"121.20301","address":"桃園號, No. 1136, 中正路, 中壢區","city":"桃園"},
{"id":"238","place_id":"ChIJkzXwwsUjaDQRh21YqkCOdvU","title":"聯達汽車修理廠","lat":"24.9677362","lng":"121.2030675","address":"桃園中壢區中正路1130號","city":"桃園"},
{"id":"239","place_id":"ChIJNesR0MUjaDQR9ow7qKddkCA","title":"裕華 汽車冷氣電機材料","lat":"24.967949","lng":"121.203199","address":"桃園中壢區中正路1154-4號","city":"桃園"},
{"id":"240","place_id":"ChIJjYKsqscjaDQRiTq0FbvQ8V8","title":"有登有限公司\/德泰角鋼鐵櫃家具行","lat":"24.96433799999999","lng":"121.202392","address":"桃園中壢區三民路一段489號","city":"桃園"},
{"id":"241","place_id":"ChIJLR_7zscjaDQROEZgVZgr-nc","title":"台灣中油松柏站","lat":"24.9641599","lng":"121.2046239","address":"桃園中壢區志廣路266號","city":"桃園"},
{"id":"242","place_id":"ChIJC-CGLMYjaDQR-FNEqzSPDQU","title":"中壢食品行","lat":"24.9644187","lng":"121.2050105","address":"桃園中壢區中正路959號","city":"桃園"},
{"id":"243","place_id":"ChIJN4syx8cjaDQRom4KcazrsqI","title":"巨禾食品","lat":"24.9634878","lng":"121.2040937","address":"桃園中壢區志廣路259號","city":"桃園"},
{"id":"244","place_id":"ChIJo34LO8YjaDQRkrBNKoYLpCY","title":"台灣中油 北基正中站","lat":"24.965226","lng":"121.204408","address":"桃園中壢區中正路1015號","city":"桃園"},
{"id":"245","place_id":"ChIJcTEON8YjaDQRsg8fd3MdM0E","title":"三民","lat":"24.9650065","lng":"121.204185","address":"桃園Taiwan","city":"桃園"},
{"id":"246","place_id":"ChIJ335NFcYjaDQRT6RNJjPDs84","title":"統一精工-速邁樂中壢站","lat":"24.9649695","lng":"121.2038728","address":"桃園中壢區志廣路311號","city":"桃園"},
{"id":"247","place_id":"ChIJq8zXp68jaDQRNKF2bMohGio","title":"永大營造有限公司","lat":"24.9656595","lng":"121.2029087","address":"桃園中壢區中正路1041巷38弄5號","city":"桃園"},
{"id":"248","place_id":"ChIJt0amYMYjaDQRHawGT9euB4k","title":"劉紳基","lat":"24.96611","lng":"121.20284","address":"桃園中壢市中正路1041巷38弄36號","city":"桃園"},
{"id":"249","place_id":"ChIJ7amoa8YjaDQRPHSpdGflV1Q","title":"眾益農業生技股份有限公司","lat":"24.96605869999999","lng":"121.2037197","address":"桃園中壢區中正路1043號","city":"桃園"},
{"id":"250","place_id":"ChIJ30DSh8gjaDQRN3d7klRm9yc","title":"嘉南羊乳南桃園經銷處","lat":"24.9641679","lng":"121.206074","address":"桃園中壢區中正路930號","city":"桃園"},
{"id":"251","place_id":"ChIJf6LTt8cjaDQRNGQkdWcfDfU","title":"中壢冠發家具(中壢區志廣路275號）","lat":"24.964001","lng":"121.203937","address":"桃園No. 275, 志廣路, 中壢區","city":"桃園"},
{"id":"252","place_id":"ChIJ38ObtccjaDQRdxwWDA4dAxI","title":"張常棟","lat":"24.9643269","lng":"121.203902","address":"桃園中壢區志廣路287號","city":"桃園"},
{"id":"253","place_id":"ChIJQbv5UDMiaDQRWSVosIbblKg","title":"民馨企業有限公司","lat":"24.963507","lng":"121.2031349","address":"桃園中壢區志廣路263巷50號","city":"桃園"},
{"id":"254","place_id":"ChIJedKfsscjaDQRSUya7efuvlQ","title":"大昇開發有限公司","lat":"24.964578","lng":"121.203252","address":"桃園中壢區三民路一段688號之1號1樓","city":"桃園"},
{"id":"255","place_id":"ChIJS7h8NAmpQjQR1hOuWsHt56g","title":"薆悅酒店西寧館","lat":"25.045057","lng":"121.5066865","address":"台北萬華區西寧南路107號","city":"台北"},
{"id":"256","place_id":"ChIJX10H1gipQjQRfmZjnra3znU","title":"台北西門町意舍酒店","lat":"25.04516169999999","lng":"121.5055717","address":"台北萬華區武昌街二段77號","city":"台北"},
{"id":"257","place_id":"ChIJ4XLHCgmpQjQR5k7O6TLjpJY","title":"明日大飯店","lat":"25.042611","lng":"121.506969","address":"台北萬華區成都路23號","city":"台北"},
{"id":"258","place_id":"ChIJF1SmXAmpQjQR-SYcH2AsKDY","title":"丰居旅店","lat":"25.0439926","lng":"121.5077956","address":"台北萬華區中華路一段114巷17號2樓","city":"台北"},
{"id":"259","place_id":"ChIJGaoLGQmpQjQRZee3w4A0D-A","title":"馬辣頂級麻辣鴛鴦火鍋-西門店","lat":"25.04337079999999","lng":"121.5062369","address":"台北萬華區西寧南路157號2f","city":"台北"},
{"id":"260","place_id":"ChIJo5ndMQmpQjQRIduldE4rC8k","title":"二十輪旅店西門館 Swiio Hotel","lat":"25.0447195","lng":"121.5062571","address":"台北萬華區武昌街二段72號6樓","city":"台北"},
{"id":"261","place_id":"ChIJDxYG_wipQjQRuOOdY1NpjWc","title":"星聚點KTV西門館","lat":"25.043089","lng":"121.505268","address":"台北萬華區成都路81號","city":"台北"},
{"id":"262","place_id":"ChIJVaA0uA6pQjQRIm19sS0WEMk","title":"橙舍青年旅舍(台北一館)","lat":"25.0456904","lng":"121.5071045","address":"台北萬華區漢口街二段41號","city":"台北"},
{"id":"263","place_id":"ChIJzxoI9wipQjQRGFeS1blKsFY","title":"肯德基KFC-台北峨嵋餐廳","lat":"25.0433561","lng":"121.5071455","address":"台北萬華區峨嵋街14-16號","city":"台北"},
{"id":"264","place_id":"ChIJNazWIAmpQjQRoqSVTRnHUKY","title":"便所主題餐廳 西門店","lat":"25.044443","lng":"121.505753","address":"台北2f, No. 7號, 西寧南路50巷, 萬華區","city":"台北"},
{"id":"265","place_id":"ChIJ3TrpqgmpQjQREzy1cKC6zK8","title":"老天祿滷味","lat":"25.0447755","lng":"121.5072417","address":"台北萬華區武昌街二段55號","city":"台北"},
{"id":"266","place_id":"ChIJNVKv9QipQjQRjEqH7mWND24","title":"愛客發商務旅館-昆明館","lat":"25.042855","lng":"121.504849","address":"台北萬華區昆明街79號10樓","city":"台北"},
{"id":"267","place_id":"ChIJ9Y_fVQipQjQRqUFXHTOT6xs","title":"函舍旅館","lat":"25.042837","lng":"121.505239","address":"台北萬華區成都路68號4-10樓","city":"台北"},
{"id":"268","place_id":"ChIJ4blbzA6pQjQRXl42zK2uO7Y","title":"儷客旅店 - 西門町館 Click Ho","lat":"25.0455799","lng":"121.5063247","address":"台北樓之3 No. 36號, No. 10, 西寧南路, 萬華區","city":"台北"},
{"id":"269","place_id":"ChIJh2W_xg6pQjQRT1FNqzf9UV4","title":"一樂園大飯店ONETEL","lat":"25.046151","lng":"121.506753","address":"台北萬華區西寧南路24號","city":"台北"},
{"id":"270","place_id":"ChIJv_XXHQmpQjQRr9zaPgdsbDk","title":"今日-秀泰影城","lat":"25.04383","lng":"121.5054194","address":"台北萬華區峨眉街52號","city":"台北"},
{"id":"271","place_id":"ChIJSTNnDQmpQjQRgRLoM3qZnP4","title":"維記茶餐廳","lat":"25.043175","lng":"121.5069096","address":"台北萬華區成都路27巷19號","city":"台北"},
{"id":"272","place_id":"ChIJi0b12AipQjQRAzCoNJDN9Pc","title":"樂麵屋 西門店","lat":"25.0448163","lng":"121.5054968","address":"台北萬華區昆明街25號","city":"台北"},
{"id":"273","place_id":"ChIJu-AYSgipQjQRhOEY2azVBz4","title":"阿財虱目魚肚","lat":"25.0416743","lng":"121.5052719","address":"台北萬華區內江街53號","city":"台北"},
{"id":"274","place_id":"ChIJs_FkWQipQjQRX1nfUDThtnI","title":"牛軋堂牛肉麵本家","lat":"25.04282","lng":"121.504693","address":"台北萬華區昆明街134之2號","city":"台北"},
{"id":"275","place_id":"ChIJJbPcpwmpQjQRxCFK-CvIrMI","title":"蜂大咖啡","lat":"25.042566","lng":"121.506354","address":"台北萬華區成都路42號","city":"台北"},
{"id":"276","place_id":"ChIJI5RGAAmpQjQRfHtquQDlghY","title":"鍋爸涮涮鍋","lat":"25.0429491","lng":"121.5056906","address":"台北萬華區成都路67號B1","city":"台北"},
{"id":"277","place_id":"ChIJhdMqVAipQjQRo-tVQopqjIw","title":"幸福旅店","lat":"25.0427653","lng":"121.5052845","address":"台北萬華區內江街55巷26號","city":"台北"},
{"id":"278","place_id":"ChIJ-Un9ewmpQjQRNBfaAz64DMM","title":"天禾旅店","lat":"25.042657","lng":"121.5079953","address":"台北萬華區中華路一段152號5樓","city":"台北"},
{"id":"279","place_id":"ChIJi-yspAmpQjQRxcHc_lwnNHw","title":"西門紅樓","lat":"25.0420139","lng":"121.5068592","address":"台北萬華區成都路10號","city":"台北"},
{"id":"280","place_id":"ChIJC2orkwmpQjQRcCWYB-80Pu0","title":"寶格利時尚旅館","lat":"25.04106599999999","lng":"121.507541","address":"台北萬華區中華路一段168號","city":"台北"},
{"id":"281","place_id":"ChIJ81-hHQqpQjQRvp7KdrLBimA","title":"臺北國軍英雄館","lat":"25.0403005","lng":"121.5083719","address":"台北中正區長沙街一段20號","city":"台北"},
{"id":"282","place_id":"ChIJ2QZevAqpQjQRlfdyg7-UV5w","title":"新驛旅店西門捷運店","lat":"25.0419055","lng":"121.5093133","address":"台北中正區寶慶路63號","city":"台北"},
{"id":"283","place_id":"ChIJ5-PXYwmpQjQRgP00DljFP6A","title":"紅磡 港式飲茶婚宴會館 中華店","lat":"25.043161","lng":"121.5080755","address":"台北萬華區中華路一段144號2F","city":"台北"},
{"id":"284","place_id":"ChIJf-KGJAipQjQR4eyAG9c7b-A","title":"洛碁大飯店新仕界New World Ho","lat":"25.040944","lng":"121.504555","address":"台北萬華區昆明街141號","city":"台北"},
{"id":"285","place_id":"ChIJy9yiTQupQjQRdRN_35Gvfi8","title":"SKYLARK","lat":"25.0411814","lng":"121.5092318","address":"台北中正區寶慶路32號","city":"台北"},
{"id":"286","place_id":"ChIJqfSGzgupQjQRISgp_6SKYQ0","title":"于記杏仁豆腐","lat":"25.042321","lng":"121.50936","address":"台北中正區衡陽路101號","city":"台北"},
{"id":"287","place_id":"ChIJY6D4wAupQjQRG6h_C0gEY7I","title":"中山堂堡壘古蹟餐廳","lat":"25.0431845","lng":"121.5098284","address":"台北中正區延平南路98號2F","city":"台北"},
{"id":"288","place_id":"ChIJtWJg_QupQjQRo2Bsg9NowJ0","title":"鴨肉扁土鵝專賣店","lat":"25.044232","lng":"121.5084477","address":"台北萬華區中華路一段98之2號","city":"台北"},
{"id":"289","place_id":"ChIJw-mPDQmpQjQRGKNsjBo1Jlo","title":"Good9stay","lat":"25.0431916","lng":"121.5067722","address":"台北五樓, No. 10號, 成都路27巷, 萬華區","city":"台北"},
{"id":"290","place_id":"ChIJf6JBTAypQjQR3yyfOzXv-EQ","title":"台北西門儷萊商旅Relite Hotel","lat":"25.0463734","lng":"121.5099335","address":"台北中正區中華路一段21號","city":"台北"},
{"id":"291","place_id":"ChIJrw2KgA6pQjQRW_wAf66dTf8","title":"建宏牛肉麵","lat":"25.0474549","lng":"121.5082669","address":"台北萬華區洛陽街45之6號","city":"台北"},
{"id":"292","place_id":"ChIJ61LmrQ6pQjQRVoMEjh6SoQY","title":"西門町芒菓冰","lat":"25.0453273","lng":"121.5078624","address":"台北萬華區漢中街17號","city":"台北"},
{"id":"293","place_id":"ChIJSem5UAypQjQRBI9I-PqUb7Q","title":"力歐時尚旅館","lat":"25.046306","lng":"121.510901","address":"台北中正區延平南路9號","city":"台北"},
{"id":"294","place_id":"ChIJ43xVrQ6pQjQRbPURvIBXohY","title":"祥發港式茶餐廳 西門店","lat":"25.0449886","lng":"121.5077474","address":"台北萬華區漢中街35-1號","city":"台北"},
{"id":"295","place_id":"ChIJf4YzfnKpQjQRlr3nfrNxQx0","title":"東一排骨總店","lat":"25.0446526","lng":"121.5104239","address":"台北中正區延平南路61號2樓","city":"台北"},
{"id":"296","place_id":"ChIJu9A7TwmpQjQRxV_baXu5fwo","title":"長虹大飯店","lat":"25.0445417","lng":"121.5074312","address":"台北萬華區漢中街36號","city":"台北"},
{"id":"297","place_id":"ChIJdSSEtg6pQjQRO73f4cBNU-E","title":"楊記花生玉米冰","lat":"25.0454797","lng":"121.5072131","address":"台北萬華區漢口街二段38號","city":"台北"},
{"id":"298","place_id":"ChIJc0gIXQypQjQRxvme2Jm_ABE","title":"清真黃牛肉麵館","lat":"25.0456689","lng":"121.510751","address":"台北中正區延平南路23號","city":"台北"},
{"id":"299","place_id":"ChIJecWy_wupQjQRAM5zy3_QJ2k","title":"西門日記","lat":"25.0446674","lng":"121.5085267","address":"台北萬華區中華路一段90號12樓","city":"台北"},
{"id":"300","place_id":"ChIJc4fj4w6pQjQRTncMs5VsHX0","title":"一加一旅館","lat":"25.0470428","lng":"121.5058499","address":"台北萬華區昆明街34號3樓","city":"台北"},
{"id":"301","place_id":"ChIJC9bmhw6pQjQRMzLaT4VIVCo","title":"富宏牛肉麵","lat":"25.0476044","lng":"121.5077276","address":"台北萬華區洛陽街67-69號","city":"台北"},
{"id":"302","place_id":"ChIJ8RsDxg6pQjQRrHEKhjeHSYQ","title":"儷夏商旅 - 西門町西寧館","lat":"25.0458935","lng":"121.5067332","address":"台北萬華區西寧南路30號","city":"台北"},
{"id":"303","place_id":"ChIJNU5gAwypQjQRk_whxlSPnbI","title":"摩斯漢堡 中華店","lat":"25.0455398","lng":"121.5087662","address":"台北萬華區中華路一段80號","city":"台北"},
{"id":"304","place_id":"ChIJqQIelg6pQjQRRDo7b4wPtbQ","title":"賽門甜不辣","lat":"25.0453406","lng":"121.5067623","address":"台北萬華區西寧南路95號","city":"台北"},
{"id":"305","place_id":"ChIJVZPY5gypQjQRZ75REkKT5Ss","title":"福泰桔子商旅 開封店","lat":"25.046128","lng":"121.51255","address":"台北中正區開封街一段41號","city":"台北"},
{"id":"306","place_id":"ChIJ0y5Y7wypQjQRRtcO4ldGEKU","title":"添財日本料理開封店","lat":"25.0459417","lng":"121.5123111","address":"台北中正區開封街一段38號","city":"台北"},
{"id":"307","place_id":"ChIJcy5e5QypQjQRkSeJ17qPv5s","title":"一番地壽喜燒 開封店","lat":"25.0459092","lng":"121.5120187","address":"台北中正區開封街一段48號","city":"台北"},
{"id":"308","place_id":"ChIJY49OUwypQjQRm57el2tpaks","title":"鄭記豬腳飯","lat":"25.0468246","lng":"121.5108212","address":"台北中正區延平南路22號","city":"台北"},
{"id":"309","place_id":"ChIJv3JcKmypQjQR5zeIcMxZgIc","title":"蘑菇森林義式廚房","lat":"25.045902","lng":"121.510384","address":"台北中正區開封街一段90號","city":"台北"},
{"id":"310","place_id":"ChIJcQyRRwypQjQRGMziFgb8SGs","title":"金財神旅店Taipei Hotel Zo","lat":"25.046471","lng":"121.509877","address":"台北中正區中華路一段21號3樓","city":"台北"},
{"id":"311","place_id":"ChIJZS6CMg2pQjQRCtjboGxMUOY","title":"璽愛旅店","lat":"25.04668849999999","lng":"121.5137983","address":"台北中正區忠孝西路一段72號3樓","city":"台北"},
{"id":"312","place_id":"ChIJwy-BZBKpQjQRc8F2uh2cOTM","title":"Maiden Diner","lat":"25.0499884","lng":"121.5118661","address":"台北中正區市民大道高架道路100號","city":"台北"},
{"id":"313","place_id":"ChIJx4-gQgypQjQRsDI62PZb1Pg","title":"麗都日本料理","lat":"25.0456581","lng":"121.5105057","address":"台北中正區延平南路50號","city":"台北"},
{"id":"314","place_id":"ChIJZS6CMg2pQjQRRCYrK6GKmFk","title":"全家歡旅店","lat":"25.0467057","lng":"121.5137929","address":"台北4樓, No. 72號, 忠孝西路一段, 中正區","city":"台北"},
{"id":"315","place_id":"ChIJhxsH5gypQjQR49F2LiKJpEU","title":"華南排骨便當專門店","lat":"25.0459794","lng":"121.5123795","address":"台北中正區開封街一段36號","city":"台北"},
{"id":"316","place_id":"ChIJP2d2rA2pQjQRXCb1A0NSHvk","title":"必聖幼教專業補習班-幼教專班\/幼教師資班","lat":"25.047117","lng":"121.51094","address":"台北中正區延平南路12號9樓","city":"台北"},
{"id":"317","place_id":"ChIJxfWlRHKpQjQR6kiqesuslEo","title":"花蓮一品香","lat":"25.04731409999999","lng":"121.5134454","address":"台北中正區忠孝西路一段47-1號","city":"台北"},
{"id":"318","place_id":"ChIJCZBS9gypQjQREa5WMi5BIZc","title":"鴻佑興業有限公司","lat":"25.0459389","lng":"121.511443","address":"台北中正區博愛路9號8樓","city":"台北"},
{"id":"319","place_id":"ChIJ31bx1wypQjQRo6I-LHJ2G5U","title":"三商巧福 重南二門市","lat":"25.0462126","lng":"121.5133986","address":"台北中正區重慶南路一段11號","city":"台北"},
{"id":"320","place_id":"ChIJgRKCTG2pQjQRwVnlsS6_7-E","title":"梅樓驛站","lat":"25.0497344","lng":"121.5145053","address":"台北大同區鄭州路21巷12號","city":"台北"},
{"id":"321","place_id":"ChIJCVp2SW2pQjQRtyiHiYgzp-o","title":"後車站六洲麵線","lat":"25.049843","lng":"121.514577","address":"台北大同區太原路22巷4號","city":"台北"},
{"id":"322","place_id":"ChIJT0EexhKpQjQRBhnK-L_tUew","title":"龍蝦先生的秘密巢穴設計青旅 Mr Lob","lat":"25.050507","lng":"121.513411","address":"台北大同區重慶北路一段22號9樓","city":"台北"},
{"id":"323","place_id":"ChIJ6cxPB22pQjQRLik_97hS8Ow","title":"台北地下街(Taipei City Ma","lat":"25.0495614","lng":"121.5138922","address":"台北中正區市民大道一段100號B1","city":"台北"},
{"id":"324","place_id":"ChIJq-QH8hKpQjQRLuPfS1REQC8","title":"小熊媽媽DIY","lat":"25.0509341","lng":"121.5135414","address":"台北大同區重慶北路一段30號B1","city":"台北"},
{"id":"325","place_id":"ChIJw-Pb8hKpQjQRScWBPZ5cY7c","title":"王子戶外休閒生活館","lat":"25.050709","lng":"121.511853","address":"台北大同區延平北路一段30號","city":"台北"},
{"id":"326","place_id":"ChIJRcBQvhKpQjQRigxMAv1vUzo","title":"丰彤設計工程有限公司","lat":"25.050214","lng":"121.512885","address":"台北大同區鄭州路83巷17號3樓","city":"台北"},
{"id":"327","place_id":"ChIJPy9YWG2pQjQRvrtGqiH1X34","title":"777咖啡","lat":"25.0502875","lng":"121.5110879","address":"台北中正區市民大道100號","city":"台北"},
{"id":"328","place_id":"ChIJuWydshKpQjQRF0mcE4_ameo","title":"保豐堂金儀器有限公司","lat":"25.049487","lng":"121.514035","address":"台北大同區鄭州路33號","city":"台北"},
{"id":"329","place_id":"ChIJhZYlGA2pQjQRHfeKgx7PM9s","title":"TKB 百官網公職\/高普考\/國營\/技師補","lat":"25.047133","lng":"121.5126107","address":"台北3樓, No. 100號, 忠孝西路一段, 中正區","city":"台北"},
{"id":"330","place_id":"ChIJI7OpxhKpQjQR09rgy9tmnzg","title":"六福香水美容保養化妝品批發","lat":"25.0507212","lng":"121.5131794","address":"台北大同區重慶北路一段26巷15號","city":"台北"},
{"id":"331","place_id":"ChIJ1dg-XwipQjQRrOG-OtR7VHQ","title":"大人天國日系情趣用品店","lat":"25.05054789999999","lng":"121.513441","address":"台北大同區重慶北路一段22號","city":"台北"},
{"id":"332","place_id":"ChIJkzmoxhKpQjQRKuvL3XvwnNA","title":"大稻埕米粉湯","lat":"25.0506861","lng":"121.5131275","address":"台北大同區重慶北路一段26巷15號","city":"台北"},
{"id":"333","place_id":"ChIJ4aAzjxKpQjQRaAHmWMlDNJA","title":"執事喫茶","lat":"25.0501467","lng":"121.5116751","address":"台北中正區台北地下街Y23","city":"台北"},
{"id":"334","place_id":"ChIJa-eAJA2pQjQRCa4UaDb_V5o","title":"永豐期貨開戶手續費優惠","lat":"25.046905","lng":"121.512907","address":"台北中正區重慶南路一段2號8樓","city":"台北"},
{"id":"335","place_id":"ChIJu55KcW2pQjQRUKkzmvWDotA","title":"君品酒店","lat":"25.0494693","lng":"121.5168741","address":"台北大同區承德路一段3號","city":"台北"},
{"id":"336","place_id":"ChIJzQQf1XKpQjQRSNo7b9p5Res","title":"新驛旅店台北車站一館","lat":"25.0462145","lng":"121.5143012","address":"台北中正區懷寧街7號","city":"台北"},
{"id":"337","place_id":"ChIJBwjDPG2pQjQRC5Al4SiGSpQ","title":"獅城商務旅館","lat":"25.050286","lng":"121.515433","address":"台北6, No. 179號, 華陰街, 大同區","city":"台北"},
{"id":"338","place_id":"ChIJG36LdG2pQjQRkkhTYf4nqLU","title":"BELLINI Pasta Pasta","lat":"25.049308","lng":"121.517194","address":"台北4f, No. 1號, 承德路一段, 大同區","city":"台北"},
{"id":"339","place_id":"ChIJpWBmxm2pQjQRhgLmoRrF5Qo","title":"三多屋(外帶生魚片)","lat":"25.05001","lng":"121.5155073","address":"台北大同區華陰街42-58號","city":"台北"},
{"id":"340","place_id":"ChIJrYYudW2pQjQRrhgYhBIJW0c","title":"君品酒店 - 雲軒西餐廳 La Roti","lat":"25.0494607","lng":"121.5169766","address":"台北大同區承德路一段3號6樓","city":"台北"},
{"id":"341","place_id":"ChIJF4b9KW2pQjQRHsB61W4cGZo","title":"皇后旅社","lat":"25.0513641","lng":"121.5145551","address":"台北大同區長安西路226號2樓","city":"台北"},
{"id":"342","place_id":"ChIJm6cnPG2pQjQRRNWksBUP7_w","title":"Star Hostel Taipei M","lat":"25.05012","lng":"121.5155884","address":"台北大同區華陰街50號4F","city":"台北"},
{"id":"343","place_id":"ChIJQYuJPG2pQjQR4KzgNhGTS9c","title":"三多屋爸爸嘴","lat":"25.0503174","lng":"121.5152572","address":"台北大同區太原路19號1樓","city":"台北"},
{"id":"344","place_id":"ChIJS25lIG2pQjQRjY0cVtSe5wQ","title":"天成文旅-蜂巢 Bee House by","lat":"25.0510667","lng":"121.5155039","address":"台北大同區太原路57號","city":"台北"},
{"id":"345","place_id":"ChIJ9-OtFm2pQjQRGkmchJpoEfM","title":"岡山羊肉","lat":"25.0500674","lng":"121.5158802","address":"台北大同區華陰街42之5號","city":"台北"},
{"id":"346","place_id":"ChIJ1SD8dG2pQjQRih4EYZV9Sbg","title":"MISO東京風日本料理","lat":"25.0493507","lng":"121.5168838","address":"台北4, No. 1號, 承德路一段, 大同區","city":"台北"},
{"id":"347","place_id":"ChIJr4YudW2pQjQR6s2rQHF7d5A","title":"君品酒店 - 頤宮中餐廳 Le Pala","lat":"25.0495027","lng":"121.5169706","address":"台北大同區承德路一段3號17樓","city":"台北"},
{"id":"348","place_id":"ChIJR4UzfnKpQjQRsge_cMhUaXA","title":"翰林茶館","lat":"25.0479545","lng":"121.5167177","address":"台北中正區北平西路3號","city":"台北"},
{"id":"349","place_id":"ChIJu4-M1HKpQjQR2Ki8iXsF0Q8","title":"皇家飯店","lat":"25.0463572","lng":"121.5143144","address":"台北中正區懷寧街5-1號","city":"台北"},
{"id":"350","place_id":"ChIJG36LdG2pQjQRTUJUC0thLFE","title":"Mo-Mo-Paradise 台北京站牧","lat":"25.049308","lng":"121.517194","address":"台北大同區承德路一段1號京站時尚廣場4樓","city":"台北"},
{"id":"351","place_id":"ChIJL6i13nKpQjQR9tra0r67GKE","title":"勝博殿 站前店","lat":"25.0461278","lng":"121.515325","address":"台北中正區忠孝西路一段66號12樓","city":"台北"},
{"id":"352","place_id":"ChIJ_XCW6HKpQjQRGAhNUIRTaXI","title":"阿羅國際旅館","lat":"25.0462618","lng":"121.5158852","address":"台北中正區忠孝西路一段50號22樓之2","city":"台北"},
{"id":"353","place_id":"ChIJR4UzfnKpQjQRl6CMi8wDUfQ","title":"徹思叔叔本店","lat":"25.047243","lng":"121.516788","address":"台北中正區北平西路3號1樓號台北車站大廳南二門","city":"台北"},
{"id":"354","place_id":"ChIJneUTn3KpQjQR8_eBLgiNFMU","title":"貳樓餐廳 微風台北車站店","lat":"25.047749","lng":"121.517044","address":"台北中正區北平西路3號2F","city":"台北"},
{"id":"355","place_id":"ChIJR4UzfnKpQjQRbuMEIlJZS9I","title":"台鐵便當本舖 4號店","lat":"25.0479239","lng":"121.517081","address":"台北中正區北平西路3號臺北車站","city":"台北"},
{"id":"356","place_id":"ChIJZ6vL8HKpQjQRr30surXe1Ls","title":"咖啡園 Checkers - 凱撒大飯店","lat":"25.0462429","lng":"121.5163782","address":"台北中正區忠孝西路一段38號2F","city":"台北"},
{"id":"357","place_id":"ChIJJyn8dG2pQjQRyRwzkyIQSt0","title":"山頭火拉麵 京站店","lat":"25.0490476","lng":"121.5181099","address":"台北大同區承德路一段1號B3","city":"台北"},
{"id":"358","place_id":"ChIJHzxo8HKpQjQRBfRxUW6538E","title":"太陽蕃茄拉麵 站前本店","lat":"25.0462341","lng":"121.5164145","address":"台北中正區忠孝西路一段38號凱撤飯店B1F","city":"台北"},
{"id":"359","place_id":"ChIJ1SD8dG2pQjQRhvJ23JLqmyo","title":"饗食天堂 台北京站店","lat":"25.049308","lng":"121.5171935","address":"台北4樓, 京站時尚廣場, No. 1號, 承德路一段, 大同區","city":"台北"},
{"id":"360","place_id":"ChIJWfZUVq6pQjQR3Z-1OU8ILgo","title":"台北凱撒大飯店","lat":"25.0461817","lng":"121.5164254","address":"台北中正區忠孝西路一段38號","city":"台北"},
{"id":"361","place_id":"ChIJG36LdG2pQjQRXX8BL6jMVGU","title":"開飯川食堂 京站店","lat":"25.049308","lng":"121.5171935","address":"台北B3, 京站時尚廣場, No. 1號, 承德路一段, 大同區","city":"台北"},
{"id":"362","place_id":"ChIJ3TH9dG2pQjQRbZcq_oogDQE","title":"金色三麥 臺北京站店","lat":"25.049308","lng":"121.5171935","address":"台北大同區承德路一段1號4F","city":"台北"},
{"id":"363","place_id":"ChIJk0uU_XKpQjQRtLULt5DMK6c","title":"Royal Host 樂雅樂餐廳 - 站","lat":"25.0456764","lng":"121.5165413","address":"台北中正區許昌街19號","city":"台北"},
{"id":"364","place_id":"ChIJVRaGU3KpQjQRcW-A0_cnS3k","title":"品格子旅店北車館","lat":"25.0455","lng":"121.517414","address":"台北10f, No. 13號, 公園路, 中正區","city":"台北"},
{"id":"365","place_id":"ChIJB0JOQXKpQjQRYjQPj0z5j7I","title":"台北天成大飯店 Cosmos Hotel","lat":"25.0463688","lng":"121.5182793","address":"台北中正區忠孝西路一段43號","city":"台北"},
{"id":"366","place_id":"ChIJ1SD8dG2pQjQRNZ1M6Hj6ZLk","title":"Cold Stone酷聖石冰淇淋京站二門","lat":"25.0490809","lng":"121.5185627","address":"台北大同區承德路一段1號B2","city":"台北"},
{"id":"367","place_id":"ChIJZ3Bl622pQjQRfIywJYwRxhw","title":"大師商旅","lat":"25.0488587","lng":"121.5184843","address":"台北大同區市民大道一段209號","city":"台北"},
{"id":"368","place_id":"ChIJA8V6U3KpQjQRuDfot7kzsZM","title":"小魏川菜餐廳","lat":"25.0455","lng":"121.517414","address":"台北中正區公園路13號3樓","city":"台北"},
{"id":"369","place_id":"ChIJyZA0vg2pQjQRbQk24f9KUHE","title":"魔法咖哩-站前店","lat":"25.0454166","lng":"121.5158347","address":"台北中正區許昌街30號2樓","city":"台北"},
{"id":"370","place_id":"ChIJp-JwQ3KpQjQRyS-jwHqrQwM","title":"平田To Go 台北店","lat":"25.0464973","lng":"121.5177936","address":"台北中正區忠孝西路一段49號","city":"台北"},
{"id":"371","place_id":"ChIJA6oCvLegQjQRLfP01AU1RfA","title":"嘉林傢俱有限公司","lat":"25.0552639","lng":"121.3443691","address":"桃園龜山區大坑路三段330巷116號","city":"桃園"},
{"id":"372","place_id":"ChIJO5D9rbCgQjQRMrFu-rTxKgc","title":"富友倉儲大湖2倉","lat":"25.0518188","lng":"121.3437434","address":"桃園龜山鄉大湖路160巷45之128號","city":"桃園"},
{"id":"373","place_id":"ChIJr2FecbegQjQRtB4wFdrJuLI","title":"桐花步道","lat":"25.0538167","lng":"121.3437809","address":"桃園龜山區大坑路三段330巷","city":"桃園"},
{"id":"374","place_id":"ChIJl1gCoLegQjQR6jgRIovSXk0","title":"土地公(大庄仔土地公廟)","lat":"25.0541635","lng":"121.3441633","address":"桃園桃園區","city":"桃園"},
{"id":"375","place_id":"ChIJ3fitxregQjQR856xlAxAl9c","title":"厚島精機工業股份有限公司","lat":"25.055665","lng":"121.344534","address":"桃園龜山鄉大坑村陳厝坑16鄰11號之18","city":"桃園"},
{"id":"376","place_id":"ChIJ64m3qLCgQjQR2YjbJSOCHCU","title":"利威倉儲","lat":"25.0518732","lng":"121.3427066","address":"桃園龜山區大湖路160巷45-130號","city":"桃園"},
{"id":"377","place_id":"ChIJnXY9MKOhQjQRaln8H0-xftM","title":"尚洪林口倉","lat":"25.0561264","lng":"121.3445843","address":"桃園龜山區大坑路三段330巷","city":"桃園"},
{"id":"378","place_id":"ChIJkWihJbigQjQRb3gcEoa6p6E","title":"騰威家具有限公司","lat":"25.0561306","lng":"121.342858","address":"桃園龜山區大坑路三段462-5號","city":"桃園"},
{"id":"379","place_id":"ChIJkWihJbigQjQRR-6XRFuBbTg","title":"瑾灃紙業有限公司","lat":"25.0561306","lng":"121.342858","address":"桃園龜山區大坑路三段462-5號","city":"桃園"},
{"id":"380","place_id":"ChIJkWihJbigQjQRl8j01cR2noY","title":"台賓國際股份有限公司","lat":"25.0561306","lng":"121.342858","address":"新北泰山區大坑路三段518號","city":"新北"},
{"id":"381","place_id":"ChIJF-cuJ8igQjQRy0NYIVNg838","title":"倍適得有限公司","lat":"25.0562812","lng":"121.3444536","address":"桃園龜山區大坑路330巷1號","city":"桃園"},
{"id":"382","place_id":"ChIJO3wSJbagQjQRTiYcgNTQkf8","title":"品創木業","lat":"25.0557305","lng":"121.3464063","address":"桃園龜山區大坑路三段426之6號","city":"桃園"},
{"id":"383","place_id":"ChIJ6ay30jSnQjQRMJ18-DR7AFg","title":"鈞宏精密工業股份有限公司","lat":"25.0565612","lng":"121.3464393","address":"桃園龜山區大坑路三段426-1號","city":"桃園"},
{"id":"384","place_id":"ChIJuUBmJragQjQRXeYYq6MNGe4","title":"誠","lat":"25.055993","lng":"121.3464403","address":"桃園龜山區大坑路三段426之4號","city":"桃園"},
{"id":"385","place_id":"ChIJCdXjJragQjQRnpMAAnDoamo","title":"欣融貨運","lat":"25.0560549","lng":"121.3465456","address":"桃園龜山區","city":"桃園"},
{"id":"386","place_id":"ChIJPzus2cmgQjQRbPBVh5_p9r0","title":"鈞宏精密工業","lat":"25.0564382","lng":"121.3464494","address":"桃園龜山區大坑路三段479號","city":"桃園"},
{"id":"387","place_id":"ChIJkWihJbigQjQRR33RRlMGrPs","title":"湧泉鋼架工程有限公司","lat":"25.05720519999999","lng":"121.3451401","address":"桃園龜山區大坑路三段371號","city":"桃園"},
{"id":"388","place_id":"ChIJJxxa3MmgQjQRvK0xkQIs7KU","title":"富景驗布","lat":"25.0566517","lng":"121.3467877","address":"桃園龜山區333","city":"桃園"},
{"id":"389","place_id":"ChIJ8RqyNMigQjQRxrFM7IhMp74","title":"大坑福德祠 萬善堂","lat":"25.0575015","lng":"121.3455656","address":"桃園號, No. 479, 大坑路三段, 龜山區","city":"桃園"},
{"id":"390","place_id":"ChIJ0T62HsqgQjQRUA9JDAOR__E","title":"大翔有限公司","lat":"25.0557345","lng":"121.3475095","address":"桃園龜山區大湖路34-88號附3號","city":"桃園"},
{"id":"391","place_id":"ChIJj8ULT7igQjQRLBYXcqVSw7A","title":"洪厝","lat":"25.055488","lng":"121.3407745","address":"桃園Taiwan","city":"桃園"},
{"id":"392","place_id":"ChIJyzJ7T7igQjQRt7yy_Qy6E00","title":"洪厝","lat":"25.055553","lng":"121.340805","address":"桃園Taiwan","city":"桃園"},
{"id":"393","place_id":"ChIJYetUTrigQjQRCmkkBsI99wE","title":"洪厝","lat":"25.055423","lng":"121.340744","address":"桃園Taiwan","city":"桃園"},
{"id":"394","place_id":"ChIJN5828cigQjQRfkl-YpGVGpQ","title":"百陞玻璃棉股份有限公司(倉庫工廠）","lat":"25.058922","lng":"121.3445755","address":"桃園龜山鄉陳厝坑路885巷2號","city":"桃園"},
{"id":"395","place_id":"ChIJkSMbs8egQjQRIv47n0bckgw","title":"柏峯風管","lat":"25.060112","lng":"121.340792","address":"桃園龜山區陳厝坑路273-9 號","city":"桃園"},
{"id":"396","place_id":"ChIJkSMbs8egQjQRLH6LXTnKdKU","title":"和懋興業股份有限公司","lat":"25.060112","lng":"121.340792","address":"桃園龜山區陳厝坑路5號之11號1樓","city":"桃園"},
{"id":"397","place_id":"ChIJCVVJWMigQjQR8Jcn9r6gMoY","title":"Denfos Creative Base","lat":"25.0592248","lng":"121.3446538","address":"桃園龜山區陳厝坑路885巷8號後棟","city":"桃園"},
{"id":"398","place_id":"ChIJL2byq-ChQjQRwm9lCeRjtuU","title":"泳睿工程國際有限公司","lat":"25.0609468","lng":"121.3417271","address":"桃園龜山區陳厝坑路653巷28-2號","city":"桃園"},
{"id":"399","place_id":"ChIJh2f7WMigQjQRSPP-vwetpKY","title":"厚昌真空科技有限公司 比撒列科技興業有限","lat":"25.059839","lng":"121.344776","address":"桃園8 號, 陳厝坑路885巷, 龜山區","city":"桃園"},
{"id":"400","place_id":"ChIJZXY4276gQjQRKHD8x4bb5-M","title":"桃園威天宮","lat":"25.0549721","lng":"121.3362328","address":"桃園龜山區大坑路三段150巷6弄1號","city":"桃園"},
{"id":"401","place_id":"ChIJ69mD2b6gQjQRue7qFaVNerM","title":"愈健看護","lat":"25.0556995","lng":"121.336128","address":"桃園Taiwan","city":"桃園"},
{"id":"402","place_id":"ChIJzd1o1r6gQjQRNW3oBeLhgyk","title":"威天宮","lat":"25.055789","lng":"121.336578","address":"桃園Taiwan","city":"桃園"},
{"id":"403","place_id":"ChIJbZWLI7-gQjQRYeIA1Igpi4U","title":"喜特麗","lat":"25.056489","lng":"121.335918","address":"桃園龜山區大坑路三段101-1號","city":"桃園"},
{"id":"404","place_id":"ChIJS8Jozr6gQjQRk8QKN8aQbv0","title":"德奇興業有限公司","lat":"25.055123","lng":"121.336578","address":"桃園龜山鄉大坑路三段150巷3號之1","city":"桃園"},
{"id":"405","place_id":"ChIJI_YK3b6gQjQRijWRQvkxmB4","title":"威天宮","lat":"25.05561","lng":"121.335678","address":"桃園Taiwan","city":"桃園"},
{"id":"406","place_id":"ChIJ3ebnLrmgQjQRYDVXocw58Wg","title":"法歐國際有限公司","lat":"25.0552697","lng":"121.3375005","address":"桃園台灣省桃園市龜山區大坑路三段150巷38號之1","city":"桃園"},
{"id":"407","place_id":"ChIJ3ebnLrmgQjQR-rbEy82TP1Y","title":"中華關聖帝君文化交流協會","lat":"25.0552697","lng":"121.3375005","address":"桃園台灣省桃園市龜山區大坑路三段150巷6弄1號","city":"桃園"},
{"id":"408","place_id":"ChIJ3ebnLrmgQjQRAvky7bdGmT4","title":"泉益興國際貿易有限公司","lat":"25.0552697","lng":"121.3375005","address":"桃園台灣省桃園市龜山區大坑路三段150巷38號之1","city":"桃園"},
{"id":"409","place_id":"ChIJdSok3b6gQjQR3pS6_XRRnyA","title":"威天宮大門","lat":"25.0554906","lng":"121.3357339","address":"桃園龜山區大坑路三段150巷","city":"桃園"},
{"id":"410","place_id":"ChIJJSTjzL6gQjQRE_BISvOCIF8","title":"威天宮大聖雕像","lat":"25.054993","lng":"121.336877","address":"桃園龜山區","city":"桃園"},
{"id":"411","place_id":"ChIJAQAAAJegQjQRtjmNrHxK-bM","title":"泓翰股份有限公司","lat":"25.0557853","lng":"121.334738","address":"桃園龜山區大坑路三段132巷8之5號","city":"桃園"},
{"id":"412","place_id":"ChIJSY0UV76gQjQRBnsQH-nctxE","title":"鴻漢系統櫃","lat":"25.055958","lng":"121.3338966","address":"桃園龜山區","city":"桃園"},
{"id":"413","place_id":"ChIJP7R6Dr6gQjQRHqBJuYnSJzk","title":"佳電企業股份有限公司","lat":"25.05487","lng":"121.332296","address":"桃園龜山區大坑路二段550號","city":"桃園"},
{"id":"414","place_id":"ChIJkWihJbigQjQR3yXQp725bi8","title":"仲益電機科技有限公司","lat":"25.056887","lng":"121.331444","address":"桃園大坑路二段593-1號附8, 龜山區","city":"桃園"},
{"id":"415","place_id":"ChIJ-Va9Lb6gQjQRKhnXGo-ah0g","title":"邦特液壓科技(龜山工廠)","lat":"25.0569119","lng":"121.3320791","address":"桃園龜山區大坑路二段687之8號","city":"桃園"},
{"id":"416","place_id":"ChIJafFlD76gQjQRtClVgjjkNGw","title":"瑋銓工業","lat":"25.0547465","lng":"121.332046","address":"桃園Taiwan","city":"桃園"},
{"id":"417","place_id":"ChIJpXzRBb6gQjQRkQ9A3sMy7JU","title":"瑋銓工業","lat":"25.054714","lng":"121.331848","address":"桃園Taiwan","city":"桃園"},
{"id":"418","place_id":"ChIJy0usAWuhQjQREd3PAt77x9A","title":"上博模具有限公司","lat":"25.0547291","lng":"121.3319629","address":"桃園龜山區大坑路二段545巷10-1號","city":"桃園"},
{"id":"419","place_id":"ChIJE9POvO4laDQRodSQ0OO-ZLY","title":"SUNBIRD ENGINEERING","lat":"25.0547291","lng":"121.3319629","address":"桃園龜山區大坑路二段545巷10-1號","city":"桃園"},
{"id":"420","place_id":"ChIJB19ZDr6gQjQRt9t1zGOU7QU","title":"瑋銓工業","lat":"25.054779","lng":"121.332244","address":"桃園Taiwan","city":"桃園"},
{"id":"421","place_id":"ChIJQYFMI4KgQjQRIU6w5_Bjg-Y","title":"佳電企業股份有限公司","lat":"25.0548639","lng":"121.3323164","address":"桃園龜山區大坑路二段550號","city":"桃園"},
{"id":"422","place_id":"ChIJ5UymG7QCaDQR0q4a6du0_Y4","title":"廷翰機械有限公司","lat":"25.0550267","lng":"121.3322827","address":"桃園龜山區大坑路二段593-1號附3","city":"桃園"},
{"id":"423","place_id":"ChIJiai7G76gQjQRJcnAroQgFI4","title":"嘉懋企業有限公司","lat":"25.055255","lng":"121.331766","address":"桃園龜山區大坑路二段547號","city":"桃園"},
{"id":"424","place_id":"ChIJGZjeB5agQjQRW5oWztSfIq8","title":"德芫實業有限公司","lat":"25.054548","lng":"121.330593","address":"桃園Taiwan","city":"桃園"},
{"id":"425","place_id":"ChIJedSDB5agQjQR83Y33rgATUo","title":"峻園股份有限公司","lat":"25.0547813","lng":"121.3304634","address":"桃園龜山區大坑路二段479巷31-8號","city":"桃園"},
{"id":"426","place_id":"ChIJr_XxCJagQjQRlQiLeG95ml4","title":"世穎實業股份有限公司","lat":"25.0545236","lng":"121.330286","address":"桃園龜山區大坑路二段479巷31號之6號","city":"桃園"},
{"id":"427","place_id":"ChIJJ7Qgd76gQjQRLfft28Np2ew","title":"大坑桐花步道","lat":"25.0542922","lng":"121.3332589","address":"桃園龜山區大坑路二段560巷","city":"桃園"},
{"id":"428","place_id":"ChIJIeVt6RKhQjQRJoN7hf5Ua_U","title":"拓品系統工程有限公司","lat":"25.0535118","lng":"121.3298698","address":"桃園龜山區大坑路二段439-2號","city":"桃園"},
{"id":"429","place_id":"ChIJ8b5WSL6gQjQR78hDGI9-A4o","title":"合力奕工業有限公司","lat":"25.0562455","lng":"121.3328792","address":"桃園台灣省桃園市龜山區大坑路二段687號之4","city":"桃園"},
{"id":"430","place_id":"ChIJsRwESZugQjQRBSlBuSl9JVs","title":"新綠築國際企業有限公司","lat":"25.0565078","lng":"121.3328781","address":"桃園龜山區大坑路二段687號之1號","city":"桃園"},
{"id":"431","place_id":"ChIJiaObz0ahQjQRKxPK5FMv2Zk","title":"凱錄企業","lat":"25.0528609","lng":"121.3293689","address":"桃園龜山區大坑路二段409號","city":"桃園"},
{"id":"432","place_id":"ChIJ9xiG9cmgQjQRURz26xggvyQ","title":"明顯木業有限公司","lat":"25.05786029999999","lng":"121.3486639","address":"桃園龜山區大崗里大坑路三段469巷32號","city":"桃園"},
{"id":"433","place_id":"ChIJ6xpo38ugQjQRS1Ox2irHG04","title":"長宏青年有限公司","lat":"25.0572239","lng":"121.3488478","address":"桃園龜山區大坑路三段469巷2號","city":"桃園"},
{"id":"434","place_id":"ChIJX-7zh8mgQjQRcn37QIRxzR8","title":"獨家代理台灣品牌eXsuper oil","lat":"25.0579039","lng":"121.3488716","address":"桃園龜山區大坑路三段469巷26號","city":"桃園"},
{"id":"435","place_id":"ChIJvTSfdMmgQjQRFteDm-jPGac","title":"索瑪","lat":"25.0590672","lng":"121.3471113","address":"桃園龜山區陳厝坑路1201巷5-1號","city":"桃園"},
{"id":"436","place_id":"ChIJ2YzwLP-hQjQR0TVtpYDPLDI","title":"諾美締露營車-舊址","lat":"25.0585782","lng":"121.3469778","address":"桃園龜山區陳厝坑路1300-1號","city":"桃園"},
{"id":"437","place_id":"ChIJe_YEdb2hQjQR_BUVWJX7jiA","title":"明紘材料股份有限公司","lat":"25.0584173","lng":"121.3469999","address":"桃園龜山區陳厝坑路1300-1號","city":"桃園"},
{"id":"438","place_id":"ChIJH2P4qTWnQjQRdtZL61mMzz8","title":"怡欣企業有限公司","lat":"25.05764409999999","lng":"121.3469473","address":"桃園龜山區陳厝坑路1300-2號","city":"桃園"},
{"id":"439","place_id":"ChIJn1JtfsmgQjQRphAxSQQ-b_M","title":"正勝有限公司","lat":"25.05875289999999","lng":"121.3483551","address":"桃園大 崗 村 51 號, 大坑路三段469巷, 龜山區","city":"桃園"},
{"id":"440","place_id":"ChIJK-YE4sugQjQR0G9OP1f1hLA","title":"翔發漆業有限公司","lat":"25.0589937","lng":"121.3483854","address":"桃園龜山區大坑路三段469巷57號","city":"桃園"},
{"id":"441","place_id":"ChIJ6xpo38ugQjQRm7qMjUhN150","title":"吉揚國際有限公司","lat":"25.0595174","lng":"121.3484954","address":"桃園龜山區大坑路三段469巷57號","city":"桃園"},
{"id":"442","place_id":"ChIJo3fGXsmgQjQRgR4SshCc8p0","title":"遠東造漆","lat":"25.0601126","lng":"121.3481985","address":"桃園龜山區大坑路三段469巷","city":"桃園"},
{"id":"443","place_id":"ChIJo5DsiMmgQjQRzJh5Xir4R4w","title":"良衛環保工程股份有限公司","lat":"25.057747","lng":"121.348202","address":"桃園龜山區大湖路34-16號","city":"桃園"},
{"id":"444","place_id":"ChIJF6P8HsmgQjQRPPOOMTj0WOY","title":"山水休閒魚池","lat":"25.0601327","lng":"121.3454285","address":"桃園龜山區陳厝坑路885巷巷","city":"桃園"},
{"id":"445","place_id":"ChIJSxx828ugQjQRJCHiKQLLY0U","title":"慧毅工業股份公司","lat":"25.059241","lng":"121.348891","address":"桃園龜山區大湖路34-24號","city":"桃園"},
{"id":"446","place_id":"ChIJr_iLK8qgQjQRKhuNg5A6dW4","title":"弘商國際貿易股份有限公司","lat":"25.058136","lng":"121.34878","address":"桃園龜山區大湖路34-20號","city":"桃園"},
{"id":"447","place_id":"ChIJA13T08ugQjQRf8Lxb4JjOjc","title":"多田牌股份有限公司服務中心","lat":"25.058629","lng":"121.348976","address":"桃園龜山區大湖路34-22號","city":"桃園"},
{"id":"448","place_id":"ChIJA13T08ugQjQRuyWDzLAOX88","title":"明展木業有限公司","lat":"25.058629","lng":"121.348976","address":"桃園龜山區大湖路34-22號","city":"桃園"},
{"id":"449","place_id":"ChIJ_854KMugQjQR7iCqnDRbPQ0","title":"駒特麗工作室-龜山廠","lat":"25.0573991","lng":"121.3534715","address":"桃園龜山區大湖路39號","city":"桃園"},
{"id":"450","place_id":"ChIJ0T62HsqgQjQR2SAkFPdQmg0","title":"光禹企業有限公司","lat":"25.0565697","lng":"121.3531361","address":"桃園龜山區大湖路63-1號","city":"桃園"},
{"id":"451","place_id":"ChIJuRuAfcqgQjQRV_dUudntXXA","title":"鎮隆宮","lat":"25.0554382","lng":"121.3516137","address":"桃園龜山區大坑路三段528號","city":"桃園"},
{"id":"452","place_id":"ChIJH2P4qTWnQjQRzyVyJmrge50","title":"國慶精密股份有限公司","lat":"25.0579715","lng":"121.3538525","address":"桃園龜山區大湖路2-17號","city":"桃園"},
{"id":"453","place_id":"ChIJH6DHeLWgQjQRtM30BNgBB5E","title":"永久業有限公司","lat":"25.054714","lng":"121.351399","address":"桃園龜山鄉大崗村大湖45號之89","city":"桃園"},
{"id":"454","place_id":"ChIJm3t4bgugQjQRMhkSzEVxRuA","title":"大燈達人-車燈修復健檢中心","lat":"25.0576264","lng":"121.3545725","address":"桃園龜山區忠義路二段663號","city":"桃園"},
{"id":"455","place_id":"ChIJVRmzzTSnQjQR5GZe6JpE3EQ","title":"馬祖黑醬麵","lat":"25.0576151","lng":"121.3545691","address":"桃園龜山區忠義路二段663號","city":"桃園"},
{"id":"456","place_id":"ChIJtSdFhS2nQjQRwa9dasjVD14","title":"金耘鋼鐵股份有限公司","lat":"25.0548139","lng":"121.3507064","address":"桃園龜山區大湖路160巷48號","city":"桃園"},
{"id":"457","place_id":"ChIJRzQycLWgQjQRqwmhxde9JHI","title":"承禹實業有限公司","lat":"25.054152","lng":"121.351964","address":"桃園龜山區大湖路210巷13號","city":"桃園"},
{"id":"458","place_id":"ChIJ_y0W3cqgQjQRqIAnwGdiSYM","title":"Tray盤","lat":"25.0568347","lng":"121.3528551","address":"桃園龜山區大湖路63-1號","city":"桃園"},
{"id":"459","place_id":"ChIJdQ9gTTSnQjQRV2oz3nVeWVE","title":"7-ELEVEN 大崗門市","lat":"25.0578696","lng":"121.3542678","address":"桃園龜山區大湖路","city":"桃園"},
{"id":"460","place_id":"ChIJ0W8O68qgQjQRLduUoZjND4Q","title":"睿晨物流股份有限公司","lat":"25.056296","lng":"121.352508","address":"桃園龜山區大湖路110號","city":"桃園"},
{"id":"461","place_id":"ChIJc0Z6k8qgQjQRLYuXA5oaeLU","title":"尤冠通有限公司","lat":"25.0564436","lng":"121.352734","address":"桃園龜山區大湖路97號","city":"桃園"},
{"id":"462","place_id":"ChIJAU4J6MqgQjQRAXV3K_b-DG4","title":"餕嘉機械有限公司","lat":"25.0567732","lng":"121.3526694","address":"桃園龜山區大湖路92號","city":"桃園"},
{"id":"463","place_id":"ChIJhQ2q3wihQjQRJyAPufeGtuk","title":"翔益國際有限公司","lat":"25.0567831","lng":"121.3528764","address":"桃園龜山區大湖路65巷25-1號","city":"桃園"},
{"id":"464","place_id":"ChIJGWsR9CChQjQRL23kd3FbUGE","title":"長虹聚合股份有限公司","lat":"25.0567831","lng":"121.3528764","address":"桃園龜山區大湖路65巷25-1號","city":"桃園"},
{"id":"465","place_id":"ChIJ_y0W3cqgQjQRqCSrt369MHw","title":"鑫能超冷科技有限公司","lat":"25.0568347","lng":"121.3528551","address":"桃園台灣省桃園市龜山區大湖路63號","city":"桃園"},
{"id":"466","place_id":"ChIJlxMUksqgQjQRyZZ12x6gM0Y","title":"瑞冠機械","lat":"25.0559987","lng":"121.3520897","address":"桃園龜山區","city":"桃園"},
{"id":"467","place_id":"ChIJt5dN3MqgQjQRetpQAF-Ut2w","title":"大景工業社","lat":"25.0569447","lng":"121.3529268","address":"桃園龜山區大湖路61號","city":"桃園"},
{"id":"468","place_id":"ChIJI39qFbWgQjQR03SR05JVt9o","title":"華湧科技有限公司","lat":"25.0533159","lng":"121.352597","address":"桃園278 巷 號, No. 76-10, 大湖路, 龜山區","city":"桃園"},
{"id":"469","place_id":"ChIJaak8grWgQjQRBukW3bokYco","title":"來發搬家-桃園龜山","lat":"25.0545524","lng":"121.3502666","address":"桃園龜山區大湖路160巷50號","city":"桃園"},
{"id":"470","place_id":"ChIJzVLdnMqgQjQRqXU_n4QsxGc","title":"RENAULT TRUCKS","lat":"25.0551398","lng":"121.3521059","address":"桃園龜山區大坑路三段","city":"桃園"},
{"id":"471","place_id":"ChIJg0yDnMqgQjQR5yTjdL4U_rs","title":"麗園小吃","lat":"25.0552364","lng":"121.3521534","address":"桃園龜山區大坑路三段","city":"桃園"},
{"id":"472","place_id":"ChIJ6ay30jSnQjQRSi3cD2glxos","title":"飛達起重工程有限公司","lat":"25.0552161","lng":"121.3519641","address":"桃園龜山區大坑路三段538號","city":"桃園"},
{"id":"473","place_id":"ChIJL00lnMqgQjQRak3_PSlHnkI","title":"上等專業檳榔連鎖","lat":"25.0550902","lng":"121.3523317","address":"桃園龜山區大坑路三段","city":"桃園"},
{"id":"474","place_id":"ChIJhTdjoWqhQjQRQGQVfI70zoI","title":"禾通企業有限公司","lat":"25.0550002","lng":"121.3523273","address":"桃園龜山區大湖路160巷1號","city":"桃園"},
{"id":"475","place_id":"ChIJ0T62HsqgQjQRudBOdFU2PNI","title":"三品貿易有限公司","lat":"25.0549548","lng":"121.35234","address":"桃園龜山區大湖路203號","city":"桃園"},
{"id":"476","place_id":"ChIJy5bFnsqgQjQRYcxqmEZj_HU","title":"禾通","lat":"25.0551279","lng":"121.3524953","address":"桃園龜山區大湖一路106巷","city":"桃園"},
{"id":"477","place_id":"ChIJJdKbmcqgQjQRK-H1T_ajPug","title":"泰宇出版股份有限公司","lat":"25.055382","lng":"121.3524409","address":"桃園台灣省桃園市龜山區大湖路203號1樓","city":"桃園"},
{"id":"478","place_id":"ChIJMw8HfrWgQjQRluSErSACSUg","title":"上通汽車修理廠","lat":"25.0550231","lng":"121.3516121","address":"桃園號, No. 16, 大湖路160巷, 龜山區","city":"桃園"},
{"id":"479","place_id":"ChIJ10aDrpCgQjQRWXPoNbL5tGQ","title":"亞慶聯合物流股份有限公司","lat":"25.0515371","lng":"121.3492031","address":"桃園龜山區大湖路160巷99號","city":"桃園"},
{"id":"480","place_id":"ChIJP7rzPzKnQjQR9aCT65K6O8U","title":"環緯股份有限公司","lat":"25.0534003","lng":"121.3490262","address":"桃園No. 87, 大湖路160巷, 龜山區","city":"桃園"},
{"id":"481","place_id":"ChIJzxsGWTWnQjQR0Gony-7zsdY","title":"巨太實業股份有限公司","lat":"25.0516742","lng":"121.3496851","address":"桃園龜山區","city":"桃園"},
{"id":"482","place_id":"ChIJMQGfH7SgQjQR-9wh-GQ9TpY","title":"統一速邁自販股份有限公司","lat":"25.0516914","lng":"121.3486114","address":"桃園台灣省桃園市龜山區大湖路160巷71弄18號","city":"桃園"},
{"id":"483","place_id":"ChIJP__iHrSgQjQRCqqrHMRuDrA","title":"文偉股份有限公司","lat":"25.051574","lng":"121.348679","address":"桃園龜山鄉大崗村大湖45號之168","city":"桃園"},
{"id":"484","place_id":"ChIJQ7x107WgQjQRbUqJK7vzkF8","title":"李總秉","lat":"25.0527455","lng":"121.3487158","address":"新北林口區大湖路160巷80號","city":"新北"},
{"id":"485","place_id":"ChIJQ7x107WgQjQRNc50ML4Tal0","title":"及普通風機械股份有限公司","lat":"25.0530051","lng":"121.3485992","address":"桃園龜山區大湖路160巷110號","city":"桃園"},
{"id":"486","place_id":"ChIJMayXo8SmQjQRBgEkWOHO-jA","title":"蘇黃精密工業有限公司","lat":"25.0507428","lng":"121.3460725","address":"桃園龜山區大湖路160巷221號之3號","city":"桃園"},
{"id":"487","place_id":"ChIJzxsGWTWnQjQRJKdGYgvkDBc","title":"勝甲企業有限公司","lat":"25.0507842","lng":"121.3460002","address":"桃園龜山鄉大崗村大湖45號之42","city":"桃園"},
{"id":"488","place_id":"ChIJw6YgMrSgQjQRSDse0eUpKFg","title":"龍昌興鷹架","lat":"25.0506792","lng":"121.3461446","address":"桃園龜山區大湖路160巷221-10號","city":"桃園"},
{"id":"489","place_id":"ChIJ67tfhauhQjQRLegvP3fXqww","title":"全發塑膠","lat":"25.0531564","lng":"121.3488956","address":"桃園龜山區大湖路160巷32弄號","city":"桃園"},
{"id":"490","place_id":"ChIJX-So9bOgQjQR8BXhF-mBRds","title":"五 插 路 檳榔攤","lat":"25.0531564","lng":"121.3488956","address":"桃園龜山區大湖路160巷","city":"桃園"},
{"id":"491","place_id":"ChIJQ7x107WgQjQRNPEdYJQO8iU","title":"臺灣北區澱粉有限公司","lat":"25.0531911","lng":"121.3488768","address":"新北林口區大湖路160巷79號","city":"新北"},
{"id":"492","place_id":"ChIJAyC217CgQjQRrTkwLzPIPUo","title":"元利鑫國際有限公司","lat":"25.0506411","lng":"121.3454961","address":"桃園台灣省桃園市龜山區大湖路160巷265號之1","city":"桃園"},
{"id":"493","place_id":"ChIJdQfdM7SgQjQRA2Mu2NNn6C8","title":"元璨科技有限公司","lat":"25.0526039","lng":"121.3494186","address":"桃園號, No. 2, 大湖路160巷, 龜山區","city":"桃園"},
{"id":"494","place_id":"ChIJj-k3N7SgQjQRjISQMJsuJIs","title":"大岡倉儲","lat":"25.0524797","lng":"121.3494708","address":"桃園龜山區大湖路160巷45-89號之 6","city":"桃園"},
{"id":"495","place_id":"ChIJkSMbs8egQjQRgrKuvFqFOIA","title":"廣霖鋼鐵有限公司","lat":"25.0589143","lng":"121.3340762","address":"桃園龜山區陳厝坑路181號","city":"桃園"},
{"id":"496","place_id":"ChIJ38PXzMWmQjQRUt6h8yMuiZ4","title":"倚鋼工業有限公司","lat":"25.05816799999999","lng":"121.3338205","address":"桃園龜山區陳厝坑路167號","city":"桃園"},
{"id":"497","place_id":"ChIJkSMbs8egQjQR59WdfUFUgs8","title":"艾渥家居有限公司iwood","lat":"25.0590526","lng":"121.3346015","address":"桃園189 號, 陳厝坑路, 龜山區","city":"桃園"},
{"id":"498","place_id":"ChIJAQAAAJegQjQRfD3bgvnzirM","title":"名瀚企業有限公司","lat":"25.0573029","lng":"121.3327691","address":"桃園蘆竹區南上路388號","city":"桃園"},
{"id":"499","place_id":"ChIJFSIqtr-gQjQRA6h6oScPRUY","title":"太極節能設備科技有限公司","lat":"25.0572838","lng":"121.3327239","address":"桃園159 號, 陳厝坑路, 龜山區","city":"桃園"},
{"id":"500","place_id":"ChIJq6qqqvodaDQRv9Qt54y7yLk","title":"傑立國際實業有限公司","lat":"25.0572102","lng":"121.3332456","address":"桃園龜山區陳厝坑路161巷1號","city":"桃園"},
{"id":"501","place_id":"ChIJq-yCr7-gQjQRPgydTeElarU","title":"樹昌興業有限公司","lat":"25.057228","lng":"121.333606","address":"桃園龜山鄉大坑村陳厝坑15鄰25號之1","city":"桃園"},
{"id":"502","place_id":"ChIJP8qQZxanQjQRwFmGPTmkHf0","title":"金洲科技股份有限公司","lat":"25.0569895","lng":"121.3321729","address":"桃園龜山區大坑路二段689-8號","city":"桃園"},
{"id":"503","place_id":"ChIJE4yCf7-gQjQRSTD8XS0lSIs","title":"台灣魁業 (工廠)","lat":"25.0586075","lng":"121.3331731","address":"桃園龜山區陳厝坑路181號","city":"桃園"},
{"id":"504","place_id":"ChIJkSMbs8egQjQRqKZcMJat3ho","title":"瀚強工程有限公司","lat":"25.0590021","lng":"121.3338183","address":"桃園龜山區陳厝坑路389-3號","city":"桃園"},
{"id":"505","place_id":"ChIJkSMbs8egQjQRmNpU01erTCM","title":"東昇螺絲工業有限公司","lat":"25.0596674","lng":"121.3339053","address":"桃園龜山區陳厝坑路189-2號","city":"桃園"},
{"id":"506","place_id":"ChIJafrLf7-gQjQRaT6lu_N0iLM","title":"廣霖鋼鐵","lat":"25.05902739999999","lng":"121.3343067","address":"桃園龜山區陳厝坑路","city":"桃園"},
{"id":"507","place_id":"ChIJkSMbs8egQjQRknGkY0x2ARA","title":"三杰機械有限公司","lat":"25.0589798","lng":"121.3344905","address":"桃園龜山區陳厝坑路187號","city":"桃園"},
{"id":"508","place_id":"ChIJkREWsb-gQjQR6MGczd68h98","title":"新航快遞桃園站","lat":"25.0571398","lng":"121.3331688","address":"桃園龜山區陳厝坑路159 號","city":"桃園"},
{"id":"509","place_id":"ChIJYflozL-gQjQRZiE6nF1NnH4","title":"敏紘工程有限公司","lat":"25.057124","lng":"121.3322837","address":"桃園龜山區大坑路二段689-6 號","city":"桃園"},
{"id":"510","place_id":"ChIJSd91lMCgQjQRKgMziUzh4cQ","title":"東聯機械有限公司","lat":"25.0597883","lng":"121.3356418","address":"桃園龜山區陳厝坑路6之33號","city":"桃園"},
{"id":"511","place_id":"ChIJ33eIoo4EbjQR_3U3BM-dBG4","title":"樂逸文旅（La hotel）—六合夜市棒","lat":"22.63327","lng":"120.303029","address":"高雄新興區南華路136號","city":"高雄"},
{"id":"512","place_id":"ChIJKTktNo4EbjQRoRKMt38KIUY","title":"美麗島站 光之穹頂","lat":"22.6313751","lng":"120.3019714","address":"高雄b1, No. 115號, 中山一路, 新興區","city":"高雄"},
{"id":"513","place_id":"ChIJn-aZvY4EbjQReAIpQ_a9Imc","title":"Hotel dùa悅品中餐廳","lat":"22.6305569","lng":"120.3043135","address":"高雄新興區林森一路165號3F","city":"高雄"},
{"id":"514","place_id":"ChIJn-aZvY4EbjQROGrJtAvcibw","title":"Hotel dùa","lat":"22.6306778","lng":"120.30445","address":"高雄新興區林森一路165號","city":"高雄"},
{"id":"515","place_id":"ChIJ-Rmmy4sEbjQRlXQdDT6nwts","title":"九福大飯店","lat":"22.6333089","lng":"120.3002661","address":"高雄新興區民主路16號","city":"高雄"},
{"id":"516","place_id":"ChIJgzsxnokEbjQRU8fI1kvZ83s","title":"老江紅茶牛奶","lat":"22.6311182","lng":"120.300211","address":"高雄新興區南台路51號","city":"高雄"},
{"id":"517","place_id":"ChIJxznXwIsEbjQR_eygv0Lo5tM","title":"六合夜市\/六合觀光夜市","lat":"22.6320758","lng":"120.2991547","address":"高雄新興區六合二路","city":"高雄"},
{"id":"518","place_id":"ChIJ2RDfz4sEbjQRgo3VFRV8v7U","title":"六合日麗飯店 Sunnyside Hot","lat":"22.63282","lng":"120.300919","address":"高雄新興區六合二路30號","city":"高雄"},
{"id":"519","place_id":"ChIJf_Bp9YsEbjQRKy-oe6nVttQ","title":"吉娃娃商旅","lat":"22.6330556","lng":"120.3033333","address":"高雄新興區六合一路158號","city":"高雄"},
{"id":"520","place_id":"ChIJ-0n3r4kEbjQRqpZlRR6Bip4","title":"半九十茶屋","lat":"22.6303298","lng":"120.2996502","address":"高雄新興區中正四路71號","city":"高雄"},
{"id":"521","place_id":"ChIJHZ_pb4kEbjQRhRMQ-ropueE","title":"中央飯店","lat":"22.6313889","lng":"120.3011111","address":"高雄新興區中正四路6號","city":"高雄"},
{"id":"522","place_id":"ChIJ1xBLYokEbjQRNf8ttGD_wy8","title":"汕頭泉成沙茶火鍋-中山總店","lat":"22.6319059","lng":"120.3012799","address":"高雄新興區中山橫路7號","city":"高雄"},
{"id":"523","place_id":"ChIJByO_DIkEbjQR8kCeacRGfTc","title":"不二緻果 (高雄不二家)","lat":"22.6307541","lng":"120.3007283","address":"高雄新興區中正四路31號","city":"高雄"},
{"id":"524","place_id":"ChIJidL8z4sEbjQR4cazQwBVmD0","title":"鈕西蘭牛排館New zealand St","lat":"22.632813","lng":"120.30098","address":"高雄新興區六合二路26號","city":"高雄"},
{"id":"525","place_id":"ChIJGXPqMokEbjQRxUodWkd-f_I","title":"瑞暘行烏魚子專賣店","lat":"22.6298129","lng":"120.3031652","address":"高雄新興區復橫一路322號","city":"高雄"},
{"id":"526","place_id":"ChIJvwHSVGMEbjQRfSxiJhxNYi8","title":"貝爾手工餅乾曲奇餅乾專賣店(手工餅乾、手","lat":"22.632626","lng":"120.3023131","address":"高雄新興區中山一路176號","city":"高雄"},
{"id":"527","place_id":"ChIJCQaxXWIEbjQRvUGGBZbYhcU","title":"烤肉之家","lat":"22.632706","lng":"120.300696","address":"高雄新興區六合二路40號","city":"高雄"},
{"id":"528","place_id":"ChIJG17X8osEbjQRh_FtLTPRcn8","title":"星行旅～原創彩繪旅宿","lat":"22.63308779999999","lng":"120.3026294","address":"高雄新興區六合一路182號","city":"高雄"},
{"id":"529","place_id":"ChIJ10T7XIkEbjQRo5UX1nWHLx8","title":"美麗島站","lat":"22.6313887","lng":"120.3019131","address":"高雄新興區中山一路115號地下一樓","city":"高雄"},
{"id":"530","place_id":"ChIJSZp3dYwEbjQRSO36ig8XGdk","title":"沐川咖哩","lat":"22.633456","lng":"120.303227","address":"高雄新興區南華路123號","city":"高雄"},
{"id":"531","place_id":"ChIJmfgh9owEbjQRMAruTju1CLQ","title":"普普的風","lat":"22.6330775","lng":"120.3049392","address":"高雄新興區林森一路230號","city":"高雄"},
{"id":"532","place_id":"ChIJofinrosEbjQR9o7NocGLMU8","title":"韓國先生-春川店 한국선생-춘천","lat":"22.6344444","lng":"120.3005556","address":"高雄1, No. 33號, 七賢二路, 新興區","city":"高雄"},
{"id":"533","place_id":"ChIJ931lS4oEbjQRupXvv5w-nBk","title":"金石大飯店","lat":"22.6339347","lng":"120.3001762","address":"高雄新興區明星街32號","city":"高雄"},
{"id":"534","place_id":"ChIJ6c0YyIkEbjQRX9vZVMkaT8U","title":"舊振南餅店 中正旗艦店","lat":"22.6305309","lng":"120.2987785","address":"高雄前金區中正四路84號","city":"高雄"},
{"id":"535","place_id":"ChIJgWs05IAEbjQRFVAsEzGJarc","title":"康橋商旅 六合夜市中正館","lat":"22.6302815","lng":"120.2980097","address":"高雄前金區中正四路112號","city":"高雄"},
{"id":"536","place_id":"ChIJ1ReatokEbjQRaMgxe6zNBwk","title":"金龍彩-彌月蛋糕 麻糬 素食麵包 平安糕","lat":"22.630174","lng":"120.298969","address":"高雄前金區中正四路83號","city":"高雄"},
{"id":"537","place_id":"ChIJJ1nDu4kEbjQRdiJd5II6wvo","title":"假期商務大飯店","lat":"22.6307008","lng":"120.2992928","address":"高雄新興區中正四路72號","city":"高雄"},
{"id":"538","place_id":"ChIJcYVHMokEbjQRQ2fLB_ZjV90","title":"檸檬愛玉冰","lat":"22.6318808","lng":"120.2989103","address":"高雄新興區六合二路89-1號","city":"高雄"},
{"id":"539","place_id":"ChIJQ21k2osEbjQRSwQMGL_bAnU","title":"方記水餃（六合夜市）","lat":"22.632597","lng":"120.301125","address":"高雄新興區六合二路23號","city":"高雄"},
{"id":"540","place_id":"ChIJg_ZsnokEbjQRJX0V4TnZZbQ","title":"第9號乳酪蛋糕-美麗島店","lat":"22.6312557","lng":"120.3002085","address":"高雄新興區南台路55號","city":"高雄"},
{"id":"541","place_id":"ChIJ9a_1_YAEbjQRUgnD3rSXMH8","title":"EZ Chocolat 手工喜餅.手工巧","lat":"22.6307511","lng":"120.2994877","address":"高雄新興區中正四路66號","city":"高雄"},
{"id":"542","place_id":"ChIJHVpwKIwEbjQRZiNW-Wmteu4","title":"著火的牛阿根廷烤肉","lat":"22.6313414","lng":"120.3053857","address":"高雄新興區中正三路122號","city":"高雄"},
{"id":"543","place_id":"ChIJCfCNxI4EbjQRbzgKmTYSKbg","title":"聰明鴨肉飯（總店）","lat":"22.629577","lng":"120.304198","address":"高雄新興區復橫一路271號","city":"高雄"},
{"id":"544","place_id":"ChIJd9eQxY4EbjQRw2VtbVS-6LA","title":"泰國料理現炒小吃店","lat":"22.6297378","lng":"120.3039163","address":"高雄新興區復橫一路284號","city":"高雄"},
{"id":"545","place_id":"ChIJYc9Gj4wEbjQRAB0KWyCP3V8","title":"野饌日式燒肉 火烤兩吃活泰國蝦吃到飽 七","lat":"22.6346254","lng":"120.3037433","address":"高雄新興區七賢一路500號","city":"高雄"},
{"id":"546","place_id":"ChIJd4Cvd4sEbjQRLMr1AXKff0A","title":"藏愛婚紗攝影(高雄店)","lat":"22.6346681","lng":"120.3026399","address":"高雄新興區七賢一路532號","city":"高雄"},
{"id":"547","place_id":"ChIJmY9sCosEbjQRl6mJ193DZ90","title":"鼎王麻辣鍋(七賢店)","lat":"22.6348361","lng":"120.3011419","address":"高雄新興區七賢二路16號","city":"高雄"},
{"id":"548","place_id":"ChIJ-XS4fosEbjQRoe2LSJNU1rM","title":"拿破倫手工西服","lat":"22.634702","lng":"120.302719","address":"高雄新興區七賢一路530號","city":"高雄"},
{"id":"549","place_id":"ChIJmcyJMokEbjQRdhK5fdxuLBU","title":"正合興蜜餞行","lat":"22.6343452","lng":"120.3019183","address":"高雄新興區中山一路229號","city":"高雄"},
{"id":"550","place_id":"ChIJxy-wrnAEbjQRmpid66Nm2mk","title":"鮪魚家族飯店鹽埕館","lat":"22.624531","lng":"120.285326","address":"高雄鹽埕區莒光街200號","city":"高雄"},
{"id":"551","place_id":"ChIJzfx7qXAEbjQRH3eTA8_P8r0","title":"翰品酒店高雄 Chateau de Ch","lat":"22.6248664","lng":"120.2856229","address":"高雄鹽埕區大仁路43號","city":"高雄"},
{"id":"552","place_id":"ChIJ3do1r3sEbjQRVr1ZpRwVrpQ","title":"愛河風景區","lat":"22.6248606","lng":"120.2891291","address":"高雄前金區河東路188-1號","city":"高雄"},
{"id":"553","place_id":"ChIJzfx7qXAEbjQR0Uy44Fen1gc","title":"翰品酒店高雄- 品日式料理","lat":"22.624814","lng":"120.285633","address":"高雄鹽埕區大仁路43號","city":"高雄"},
{"id":"554","place_id":"ChIJdy0fvHAEbjQRDA3wUiaAo94","title":"巴堂蜂蜜蛋糕","lat":"22.6258382","lng":"120.284886","address":"高雄鹽埕區大勇路127號","city":"高雄"},
{"id":"555","place_id":"ChIJfxTrY3oEbjQRBgqP88zWQWc","title":"高雄市立歷史博物館 (原高雄市役所)","lat":"22.6269501","lng":"120.2867994","address":"高雄鹽埕區中正四路272號","city":"高雄"},
{"id":"556","place_id":"ChIJ-_sR93kEbjQRUmIh9B3STYY","title":"木屋家常料理","lat":"22.624144","lng":"120.28675","address":"高雄鹽埕區大智路151號","city":"高雄"},
{"id":"557","place_id":"ChIJGaqBzLQEbjQROAf-FJQ_d5U","title":"愛河愛之船","lat":"22.6246207","lng":"120.2898679","address":"高雄前金區河東路","city":"高雄"},
{"id":"558","place_id":"ChIJfaHUk3AEbjQRSAlnroJnNtI","title":"Q21 Hotel 帝后大飯店","lat":"22.6265659","lng":"120.28469","address":"高雄鹽埕區大公路21號","city":"高雄"},
{"id":"559","place_id":"ChIJq6qqqnkEbjQRduzzuhGZoPM","title":"樺達奶茶 鹽埕總店","lat":"22.6237958","lng":"120.2858493","address":"高雄鹽埕區新樂街112號","city":"高雄"},
{"id":"560","place_id":"ChIJAfB7AHoEbjQRaT7ono84EU0","title":"書包大王","lat":"22.62466599999999","lng":"120.28591","address":"高雄鹽埕區大仁路33號","city":"高雄"},
{"id":"561","place_id":"ChIJr3XDq3AEbjQRO2giaVVCrOg","title":"翰品酒店高雄- 港都茶樓","lat":"22.624863","lng":"120.285632","address":"高雄鹽埕區大仁路43號3樓","city":"高雄"},
{"id":"562","place_id":"ChIJOeds8XkEbjQRtHl03F0xI2k","title":"高雄市鹽埕區光榮國小","lat":"22.6235259","lng":"120.2873584","address":"高雄鹽埕區大智路150號","city":"高雄"},
{"id":"563","place_id":"ChIJZUy_W3cEbjQR_iN9nJCRsI0","title":"天池冬瓜茶","lat":"22.6238458","lng":"120.285406","address":"高雄鹽埕區新樂街113號","city":"高雄"},
{"id":"564","place_id":"ChIJ_QM9jnoEbjQRQvv8fQDIzX4","title":"高雄市音樂館","lat":"22.6276246","lng":"120.2868631","address":"高雄鹽埕區河西路99號","city":"高雄"},
{"id":"565","place_id":"ChIJ_xhJrHAEbjQRPCe3Xn2F_2Y","title":"Rocks 岩石音樂","lat":"22.6248934","lng":"120.2853289","address":"高雄鹽埕區莒光街219號B1","city":"高雄"},
{"id":"566","place_id":"ChIJ5_2-wXkEbjQRiepeYaVJpcI","title":"田記豆漿","lat":"22.622861","lng":"120.2870372","address":"高雄鹽埕區新樂街75之3號","city":"高雄"},
{"id":"567","place_id":"ChIJU2uyaHoEbjQR6SLeog-FuvI","title":"高雄國際會議中心 ICCK","lat":"22.6265264","lng":"120.2857339","address":"高雄鹽埕區中正四路274號","city":"高雄"},
{"id":"568","place_id":"ChIJEQtaG3oEbjQRzLJ4hjKy3d0","title":"高雄市新興衛生所鹽埕衛生站","lat":"22.6246652","lng":"120.2868012","address":"高雄鹽埕區大仁路6號","city":"高雄"},
{"id":"569","place_id":"ChIJh-Z5NIcEbjQRWlFKGoWEXIY","title":"夏慕尼新香榭鐵板燒高雄五福店","lat":"22.6219878","lng":"120.2991991","address":"高雄前金區五福三路29號","city":"高雄"},
{"id":"570","place_id":"ChIJ4wgbXYcEbjQRbVrx9LtP9fE","title":"御宿商旅-中央公園館","lat":"22.623198","lng":"120.298027","address":"高雄前金區中華三路15號","city":"高雄"},
{"id":"571","place_id":"ChIJBdXrqYAEbjQRQ6zwzafBTW4","title":"大立百貨","lat":"22.6217187","lng":"120.2982709","address":"高雄前金區五福三路57-59號","city":"高雄"},
{"id":"572","place_id":"ChIJt23AfIcEbjQRNIRKePXbIIs","title":"老四川巴蜀麻辣燙 高雄中華總店","lat":"22.6241048","lng":"120.2976335","address":"高雄前金區中華三路23-6號","city":"高雄"},
{"id":"573","place_id":"ChIJSfwPAH4EbjQRIHEbXWg62qg","title":"摩斯漢堡 大立前店","lat":"22.622109","lng":"120.297373","address":"高雄前金區五福三路52號","city":"高雄"},
{"id":"574","place_id":"ChIJZQOowIAEbjQR_CzqX-7HpEM","title":"黑澤屋","lat":"22.6207779","lng":"120.2988151","address":"高雄前金區新田路230號","city":"高雄"},
{"id":"575","place_id":"ChIJy5UGqYAEbjQRly8JriLM53s","title":"勝博殿 -高雄大立店","lat":"22.6214448","lng":"120.298507","address":"高雄前金區五福三路57號B2F","city":"高雄"},
{"id":"576","place_id":"ChIJy5UGqYAEbjQR_MB3-PAt3Mk","title":"糖朝","lat":"22.6217077","lng":"120.2982807","address":"高雄前金區五福三路57號B2","city":"高雄"},
{"id":"577","place_id":"ChIJq-LYBX4EbjQRK6ezz0ZZTvA","title":"金城鴨肉専門店","lat":"22.6219487","lng":"120.2968098","address":"高雄前金區五福三路62號","city":"高雄"},
{"id":"578","place_id":"ChIJI6BX84YEbjQRVcf_D-3UbvQ","title":"Honey Honey 義廚","lat":"22.623583","lng":"120.301706","address":"高雄高雄市新興區五福二路262號1樓(靠中山路停車場右側)","city":"高雄"},
{"id":"579","place_id":"ChIJUxqWpocEbjQRIUwU_iCWP4w","title":"中央公園","lat":"22.62473809999999","lng":"120.2994576","address":"高雄前金區","city":"高雄"},
{"id":"580","place_id":"ChIJsxrYwoAEbjQRiwetrlCgYdk","title":"包手 新田門市","lat":"22.6209515","lng":"120.299376","address":"高雄前金區中華四路332號","city":"高雄"},
{"id":"581","place_id":"ChIJidrewYYEbjQRKI62x_gVkZs","title":"麻吉咖啡","lat":"22.6226776","lng":"120.3014533","address":"高雄新興區中山二路558號","city":"高雄"},
{"id":"582","place_id":"ChIJE6IXZ4cEbjQRHrZL1TcpsAI","title":"全家便利商店 (高雄中華店)","lat":"22.62346969999999","lng":"120.2978552","address":"高雄前金區中華三路21號","city":"高雄"},
{"id":"583","place_id":"ChIJ7yO4fIcEbjQRtg58OnYTkPk","title":"鴻賓牛排館","lat":"22.6239074","lng":"120.2977629","address":"高雄前金區中華三路23-4號","city":"高雄"},
{"id":"584","place_id":"ChIJwTSJiYYEbjQROLkM5AEfBX0","title":"麥當勞 高雄五福店","lat":"22.6237106","lng":"120.3021545","address":"高雄新興區五福二路258號","city":"高雄"},
{"id":"585","place_id":"ChIJyaMyW4cEbjQRr8SFjXy1STo","title":"我家牛排","lat":"22.6228412","lng":"120.2981579","address":"高雄前金區中華三路5號","city":"高雄"},
{"id":"586","place_id":"ChIJK2akXIcEbjQROXtpcpqeD5w","title":"好樂迪KTV","lat":"22.6230544","lng":"120.2980486","address":"高雄前金區中華三路11號","city":"高雄"},
{"id":"587","place_id":"ChIJpfH9vYYEbjQREQLnA7muZy0","title":"生活樂子","lat":"22.6224518","lng":"120.3020706","address":"高雄新興區仁智街273號","city":"高雄"},
{"id":"588","place_id":"ChIJWwYWNnkEbjQR3dov5hIcVpA","title":"河堤時尚旅店","lat":"22.6221069","lng":"120.2913256","address":"高雄前金區光復二街191號","city":"高雄"},
{"id":"589","place_id":"ChIJ102ZTHgEbjQRAtnaXJ0-o0o","title":"高雄福容大飯店 Fullon Hotel","lat":"22.621363","lng":"120.287711","address":"高雄鹽埕區五福四路45號","city":"高雄"},
{"id":"590","place_id":"ChIJO7jfCHkEbjQR67Rh2pNutMI","title":"安多尼歐 Premium Steak f","lat":"22.6219601","lng":"120.2890498","address":"高雄鹽埕區河西路7-1號","city":"高雄"},
{"id":"591","place_id":"ChIJiWm7K3kEbjQRGqippb9EdQI","title":"SUBWAY 愛河店","lat":"22.620837","lng":"120.291422","address":"高雄前金區五福三路148號","city":"高雄"},
{"id":"592","place_id":"ChIJmYPq1XgEbjQRD2iIwgt5y7M","title":"天主教高雄教區玫瑰聖母聖殿主教座堂","lat":"22.6203245","lng":"120.2916188","address":"高雄苓雅區五福三路151號","city":"高雄"},
{"id":"593","place_id":"ChIJpZX39XgEbjQRTbJqt4keZoY","title":"小木屋廚房 CABIN KITCHEN","lat":"22.6202601","lng":"120.2887239","address":"高雄鹽埕區公園二路12巷13號","city":"高雄"},
{"id":"594","place_id":"ChIJqbSBdHkEbjQRZZy3GpZdl-o","title":"高雄市電影館","lat":"22.6224357","lng":"120.2887813","address":"高雄鹽埕區河西路10號","city":"高雄"},
{"id":"595","place_id":"ChIJRatfUXgEbjQRn9iJw5SV3Ng","title":"瑪莉食品行-高雄伴手禮\/愛河栗子燒\/高雄","lat":"22.620997","lng":"120.288326","address":"高雄鹽埕區五福四路25號","city":"高雄"},
{"id":"596","place_id":"ChIJVVokUngEbjQR-a2eD4kbT70","title":"新統一泓品傳統牛排館-高雄館","lat":"22.6210707","lng":"120.28816","address":"高雄鹽埕區五福四路31號","city":"高雄"},
{"id":"597","place_id":"ChIJWc-YTngEbjQRR1Y3THS-JeQ","title":"港園牛肉麵","lat":"22.6210904","lng":"120.2877845","address":"高雄鹽埕區大成街55號","city":"高雄"},
{"id":"598","place_id":"ChIJwUGvonkEbjQR8xSQ24l9JHo","title":"高雄市立鹽埕國民中學","lat":"22.62268","lng":"120.288063","address":"高雄鹽埕區新樂街46號","city":"高雄"},
{"id":"599","place_id":"ChIJpfaYq3kEbjQRSH-JdQ3q4Ow","title":"合羽亭","lat":"22.6213889","lng":"120.2883333","address":"高雄鹽埕區五福四路30號","city":"高雄"},
{"id":"600","place_id":"ChIJLR19P3gEbjQRVhmYDEDJO4U","title":"老王壽司店","lat":"22.62044119999999","lng":"120.2873929","address":"高雄鹽埕區必忠街51號","city":"高雄"},
{"id":"601","place_id":"ChIJGTp2rHkEbjQR1PA-uneBDSM","title":"友加友咖啡店","lat":"22.62144","lng":"120.2882669","address":"高雄鹽埕區五福四路34號","city":"高雄"},
{"id":"602","place_id":"ChIJ102ZTHgEbjQRBChnCeqAhlg","title":"福容大飯店-阿基師茶樓","lat":"22.621412","lng":"120.287683","address":"高雄鹽埕區五福四路45號2樓","city":"高雄"},
{"id":"603","place_id":"ChIJ73yvMX8EbjQR3LrQ5BIe15c","title":"一零四法拍網股份有限公司","lat":"22.6198667","lng":"120.2920804","address":"高雄苓雅區海邊路65號","city":"高雄"},
{"id":"604","place_id":"ChIJ9RMe5n4EbjQRy_FEzHDVDuA","title":"高雄市立高雄女子高級中學","lat":"22.6212858","lng":"120.2928418","address":"高雄前金區五福三路122號","city":"高雄"},
{"id":"605","place_id":"ChIJ2RfZqHkEbjQRsAQWmPa6T_c","title":"魚鑫 魚料理","lat":"22.621824","lng":"120.28847","address":"高雄鹽埕區大成街76號","city":"高雄"},
{"id":"606","place_id":"ChIJT1tVSXUEbjQRkKtYZtQgj5A","title":"原山形屋書店","lat":"22.6225249","lng":"120.2747744","address":"高雄鼓山區臨海三路16號","city":"高雄"},
{"id":"607","place_id":"ChIJQ4merYoDbjQRTB7LRT8m-Kg","title":"Le Bon Marché 好市集手作料","lat":"22.6209107","lng":"120.2745719","address":"高雄鼓山區鼓山一路19號","city":"高雄"},
{"id":"608","place_id":"ChIJAcqWpAoEbjQRgukcMVy2IX0","title":"丹丹漢堡 西子灣店","lat":"22.6223566","lng":"120.2733317","address":"高雄鼓山區臨海二路24號高雄捷運西子灣站","city":"高雄"},
{"id":"609","place_id":"ChIJVVVVVTkEbjQRVV4ksOC_M4g","title":"紅十字育幼中心（原愛國婦人會館）","lat":"22.6240207","lng":"120.2733851","address":"高雄鼓山區登山街28號","city":"高雄"},
{"id":"610","place_id":"ChIJe2qlr4oDbjQRPB0OWB5wxLc","title":"元氣早餐店","lat":"22.620933","lng":"120.2748247","address":"高雄鼓山區鼓山一路24之1號","city":"高雄"},
{"id":"611","place_id":"ChIJUyNSwAoEbjQR6PB8KJ3tRP8","title":"高雄市立圖書館南鼓山分館","lat":"22.623312","lng":"120.2730449","address":"高雄鼓山區延平街87之13號4樓","city":"高雄"},
{"id":"612","place_id":"ChIJ0z2DVXUEbjQRvE4KQRtOwfo","title":"捷運西子灣站","lat":"22.621548","lng":"120.274544","address":"高雄鼓山區臨海二路17之1號B1樓","city":"高雄"},
{"id":"613","place_id":"ChIJWyPTPHUEbjQRhzJUuguEbek","title":"高雄市消防局鼓山分隊","lat":"22.6232721","lng":"120.2755513","address":"高雄鼓山區臨海一路61-1號","city":"高雄"},
{"id":"614","place_id":"ChIJvc_2JnUEbjQR83RQGHEqi4k","title":"西國第一番","lat":"22.6238209","lng":"120.2752698","address":"高雄鼓山區千光路14號","city":"高雄"},
{"id":"615","place_id":"ChIJ_fL-Q3UEbjQRAvV8HjhQmis","title":"YouBike微笑單車 2.0","lat":"22.62226","lng":"120.27547","address":"高雄鼓山區鼓山分局新濱派出所","city":"高雄"},
{"id":"616","place_id":"ChIJL-8YMnUEbjQRT2WAu4COEEg","title":"青山寺","lat":"22.623419","lng":"120.2746792","address":"高雄鼓山區登山街4巷11號","city":"高雄"},
{"id":"617","place_id":"ChIJbVfD-nQEbjQR-OaQqYTCql0","title":"哈瑪星船舶企業有限公司","lat":"22.62432","lng":"120.27658","address":"高雄鼓山區鼓山一路53之2號","city":"高雄"},
{"id":"618","place_id":"ChIJkQxlWnUEbjQR84U4FwMKRWU","title":"Gogoro 電池交換站 中油南鼓山站","lat":"22.622013","lng":"120.2749353","address":"高雄鼓山區捷興二街46號","city":"高雄"},
{"id":"619","place_id":"ChIJ52GuW_UDbjQRNu2frNEgh9E","title":"英豐船務代理股份有限公司","lat":"22.6224302","lng":"120.2743553","address":"高雄鼓山區臨海一路21號","city":"高雄"},
{"id":"620","place_id":"ChIJww7mV3QEbjQRC-VewQL1k_o","title":"鐵道園區天空雲台","lat":"22.6242351","lng":"120.2772739","address":"高雄鼓山區鼓山一路","city":"高雄"},
{"id":"621","place_id":"ChIJo9E4UHUEbjQRK_dYfpaqssk","title":"台灣中油南鼓山站(直營&自助)","lat":"22.62161","lng":"120.2749566","address":"高雄鼓山區捷興二街46號","city":"高雄"},
{"id":"622","place_id":"ChIJbQ2MpgoEbjQRhMYFPJGXEwk","title":"西子灣站","lat":"22.6213249","lng":"120.2753799","address":"高雄鼓山區臨海二路17-1號","city":"高雄"},
{"id":"623","place_id":"ChIJb1FiFvUDbjQRrgG6kL5684g","title":"Jason’s Pizza House","lat":"22.6221292","lng":"120.2740915","address":"高雄鼓山區臨海一路21-3附3號","city":"高雄"},
{"id":"624","place_id":"ChIJe3JqSXUEbjQRW90CPCMPNqM","title":"壹貳樓","lat":"22.6225605","lng":"120.2748108","address":"高雄鼓山區臨海三路14號","city":"高雄"},
{"id":"625","place_id":"ChIJLbqurvUDbjQRSNbyBlpuV3I","title":"高雄渡船頭海之冰","lat":"22.6199112","lng":"120.2710724","address":"高雄鼓山區濱海一路76號","city":"高雄"},
{"id":"626","place_id":"ChIJPy9itPUDbjQRtHWUutzZ1Lw","title":"蘇阿嬤雞蛋酥","lat":"22.6198666","lng":"120.2703235","address":"高雄鼓山區濱海一路96號","city":"高雄"},
{"id":"627","place_id":"ChIJE0hJdgoEbjQRyrkRPyLbOOI","title":"阿木的店 貝果","lat":"22.622444","lng":"120.270535","address":"高雄鼓山區長安街11號","city":"高雄"},
{"id":"628","place_id":"ChIJfdNrbQoEbjQRiWsbvzndUU8","title":"阪城海鮮料理 # 駁二特區附近美食","lat":"22.6231017","lng":"120.2700838","address":"高雄鼓山區濱海二路25號1樓","city":"高雄"},
{"id":"629","place_id":"ChIJvx02qfUDbjQRAXPeZtYLSdY","title":"九日平價日式串燒","lat":"22.619954","lng":"120.27113","address":"高雄鼓山區濱海一路72號","city":"高雄"},
{"id":"630","place_id":"ChIJ_R_BVHkEbjQRwQHchG1I_LA","title":"迪波波藝食館 Deep Purple","lat":"22.6215468","lng":"120.2721643","address":"高雄鼓山區鼓元街57號","city":"高雄"},
{"id":"631","place_id":"ChIJw5qAFAoEbjQREA0E71XYgEg","title":"哈碼星第一船渠景觀步道","lat":"22.6223389","lng":"120.2699502","address":"高雄鼓山區","city":"高雄"},
{"id":"632","place_id":"ChIJTVobtPUDbjQR_ann5LQe_9M","title":"握咖啡西子灣店(總店)","lat":"22.6200113","lng":"120.2702274","address":"高雄鼓山區濱海二路5號","city":"高雄"},
{"id":"633","place_id":"ChIJTRMtrfUDbjQRFSPjhj7ovZU","title":"福泉雪花冰.布丁豆花 西子灣店","lat":"22.6197147","lng":"120.2708343","address":"高雄鼓山區濱海一路91號","city":"高雄"},
{"id":"634","place_id":"ChIJm-ZKS_QDbjQRNVBClr0BzPg","title":"收費停車場","lat":"22.6196615","lng":"120.2702933","address":"高雄鼓山區","city":"高雄"},
{"id":"635","place_id":"ChIJuUA6fAoEbjQRAT4jptGXVW0","title":"哈瑪星旗魚丸","lat":"22.6222795","lng":"120.2711759","address":"高雄鼓山區鼓波街27-7號","city":"高雄"},
{"id":"636","place_id":"ChIJTdtsfgoEbjQRI6qsEfpxPNY","title":"高雄哈瑪星代天宮","lat":"22.6225338","lng":"120.2711792","address":"高雄鼓山區鼓波街27號","city":"高雄"},
{"id":"637","place_id":"ChIJmVe8qPUDbjQRE_7EmsYCrak","title":"阿雪小吃部","lat":"22.6201595","lng":"120.2711487","address":"高雄鼓山區延平街8號","city":"高雄"},
{"id":"638","place_id":"ChIJI7E62_UDbjQRMhXqcYnHSbE","title":"一號船渠景觀橋","lat":"22.6203047","lng":"120.2696984","address":"高雄鼓山區哨船街30號","city":"高雄"},
{"id":"639","place_id":"ChIJ03-QzDgEbjQRjPCcgVeWtoQ","title":"阿珠的店","lat":"22.6199606","lng":"120.2713304","address":"高雄鼓山區濱海一路64號","city":"高雄"},
{"id":"640","place_id":"ChIJ2zQFfgoEbjQRoRUBiRyDZbA","title":"哈瑪星汕頭麵","lat":"22.6224663","lng":"120.27144","address":"高雄鼓山區鼓波街27-16號","city":"高雄"},
{"id":"641","place_id":"ChIJ-XeijwoEbjQRC51QTNQTXrE","title":"50嵐哈瑪星臨海店","lat":"22.6227954","lng":"120.2721006","address":"高雄鼓山區臨海二路41號","city":"高雄"},
{"id":"642","place_id":"ChIJhQsVhPUDbjQRbkSX6Viarzc","title":"順和排骨大王","lat":"22.6219139","lng":"120.271125","address":"高雄鼓山區鼓波街19-3號","city":"高雄"},
{"id":"643","place_id":"ChIJFfV1wfYDbjQRHdGpq6VRADM","title":"打狗英國領事館文化園區山上官邸","lat":"22.6188665","lng":"120.2668686","address":"高雄鼓山區蓮海路20號","city":"高雄"},
{"id":"644","place_id":"ChIJFfV1wfYDbjQRAcNFbfuZG0Y","title":"古典玫瑰園 Tea & Art - 打狗","lat":"22.618911","lng":"120.26685","address":"高雄鼓山區蓮海路20號","city":"高雄"},
{"id":"645","place_id":"ChIJmX-xrfYDbjQRk7ApcAw3Bto","title":"碧港良居商旅(西子灣)","lat":"22.6186053","lng":"120.2687014","address":"高雄鼓山區哨船街31號","city":"高雄"},
{"id":"646","place_id":"ChIJH_jG6_YDbjQRaJXzrA4fHxc","title":"靈興殿","lat":"22.6192379","lng":"120.2670969","address":"高雄鼓山區","city":"高雄"},
{"id":"647","place_id":"ChIJsUAuPPYDbjQRcYPMxS3RPsI","title":"打狗","lat":"22.622119","lng":"120.266928","address":"高雄高雄市鼓山區","city":"高雄"},
{"id":"648","place_id":"ChIJ1TmhVfYDbjQRgVgvnpXXwq8","title":"情侶蘿蔔坑","lat":"22.620722","lng":"120.2658889","address":"高雄鼓山區","city":"高雄"},
{"id":"649","place_id":"ChIJx_gEHfQDbjQRzVYkQWNX_zE","title":"STARBUCKS 星巴克西子灣","lat":"22.6179889","lng":"120.2685389","address":"高雄鼓山區哨船街14號","city":"高雄"},
{"id":"650","place_id":"ChIJ1TmhVfYDbjQRhxT9mKrIJ-E","title":"西子灣城垛情人座","lat":"22.620722","lng":"120.2658889","address":"高雄鼓山區","city":"高雄"},
{"id":"651","place_id":"ChIJRdjFzPYDbjQRG1Xk0B4XLao","title":"貝殼情人","lat":"22.6182226","lng":"120.2665073","address":"高雄鼓山區蓮海路18-1號","city":"高雄"},
{"id":"652","place_id":"ChIJQVlDhvYDbjQRWV8ofk0Xj5E","title":"哨船頭公園","lat":"22.6182975","lng":"120.2693573","address":"高雄鼓山區","city":"高雄"},
{"id":"653","place_id":"ChIJwcDHkvYDbjQRI0PSdgBM9a4","title":"打狗英國領事館登山古道","lat":"22.6184357","lng":"120.2670359","address":"高雄鼓山區","city":"高雄"},
{"id":"654","place_id":"ChIJVVVVVTkEbjQR-aW-0r3YZrc","title":"西子灣風景區","lat":"22.617934","lng":"120.2660636","address":"高雄鼓山區蓮海路70號","city":"高雄"},
{"id":"655","place_id":"ChIJ-f3l0_UDbjQRMA4HC32aFNs","title":"葵耀企業有限公司","lat":"22.6202487","lng":"120.2690231","address":"高雄鼓山區哨船街58號","city":"高雄"},
{"id":"656","place_id":"ChIJT9-P0PUDbjQRa733YxizbMU","title":"海王子六號高雄港遊港","lat":"22.6205826","lng":"120.2690758","address":"高雄號, No. 64, 哨船街, 鼓山區","city":"高雄"},
{"id":"657","place_id":"ChIJiS_JK_EDbjQR8Mq35EkQ1j0","title":"西子灣觀景臺","lat":"22.61769289999999","lng":"120.2659149","address":"高雄鼓山區","city":"高雄"},
{"id":"658","place_id":"ChIJTc5MKfEDbjQRQ7UUWqpeQhA","title":"雄鎮北門","lat":"22.61758390000001","lng":"120.2664633","address":"高雄鼓山區蓮海路6號","city":"高雄"},
{"id":"659","place_id":"ChIJiy2i5vYDbjQRfYZC54OBDHY","title":"西子灣停車場","lat":"22.6189655","lng":"120.2662287","address":"高雄鼓山區蓮海路","city":"高雄"},
{"id":"660","place_id":"ChIJl_2-zfYDbjQR2wa-15Na_-s","title":"羽翼屋","lat":"22.6180445","lng":"120.2665576","address":"高雄鼓山區哨船街18-1號","city":"高雄"},
{"id":"661","place_id":"ChIJueVp1PYDbjQRqGzsugCorUM","title":"西子夕照碑","lat":"22.618147","lng":"120.2659699","address":"高雄鼓山區","city":"高雄"},
{"id":"662","place_id":"ChIJiUEBHvQDbjQRveyQ6cP-3r0","title":"吉豐達車業-yamaha","lat":"22.6184744","lng":"120.2686508","address":"高雄鼓山區哨船街27號","city":"高雄"},
{"id":"663","place_id":"ChIJJyhFIfQDbjQRi6XfGBIowBA","title":"OK便利商店高雄西子灣店","lat":"22.6189389","lng":"120.268893","address":"高雄鼓山區哨船街41號","city":"高雄"},
{"id":"664","place_id":"ChIJn4YS-CIWaTQRivgVK3_GtSg","title":"碧根逢甲酒店","lat":"24.1789534","lng":"120.6453692","address":"台中西屯區福星路427號","city":"台中"},
{"id":"665","place_id":"ChIJXwQ5SCIWaTQR3tIg68emIqU","title":"一心素食臭豆腐","lat":"24.1778562","lng":"120.6451825","address":"台中西屯區福星路461巷號","city":"台中"},
{"id":"666","place_id":"ChIJV_KoLiIWaTQREpgzStF7vPo","title":"Cafe Buddha 佈達咖啡","lat":"24.1767077","lng":"120.645479","address":"台中西屯區文華路永新巷7號","city":"台中"},
{"id":"667","place_id":"ChIJLdwBtyMWaTQRCZta2gNZI6s","title":"小鬍子懶人蝦","lat":"24.1770064","lng":"120.6465168","address":"台中西屯區文華路39號","city":"台中"},
{"id":"668","place_id":"ChIJu8f7zyMWaTQRYlBpRJIM1Zg","title":"阿華黑輪","lat":"24.1768313","lng":"120.6466744","address":"台中西屯區文華路55號","city":"台中"},
{"id":"669","place_id":"ChIJp4qYpyMWaTQRWgPDQWwU3XM","title":"逢甲大學","lat":"24.1786547","lng":"120.6467411","address":"台中西屯區文華路100號","city":"台中"},
{"id":"670","place_id":"ChIJX4EYAyMWaTQRG3VgBydiZFg","title":"官芝霖大腸包小腸","lat":"24.1788954","lng":"120.6456488","address":"台中西屯區逢甲路","city":"台中"},
{"id":"671","place_id":"ChIJ3wVs4CIWaTQRyPgl6IUYqyU","title":"梅香小吃","lat":"24.180263","lng":"120.645765","address":"台中西屯區逢甲路20巷42號","city":"台中"},
{"id":"672","place_id":"ChIJK4W2WSIWaTQROebP2ugIGg8","title":"逢甲夜市","lat":"24.1788237","lng":"120.6464609","address":"台中西屯區文華路","city":"台中"},
{"id":"673","place_id":"ChIJNTi34iIWaTQRJCoYw3MwPds","title":"百膳工房大腸包小腸","lat":"24.1802533","lng":"120.645514","address":"台中西屯區逢甲路20巷2號","city":"台中"},
{"id":"674","place_id":"ChIJQ_uGfSEWaTQRGHJ3sIXgdLs","title":"豬宝盒","lat":"24.1761649","lng":"120.646383","address":"台中西屯區文華路12-7號","city":"台中"},
{"id":"675","place_id":"ChIJA8b3-iIWaTQRZ3ZKwdZX9CY","title":"龍涎居雞膳食坊 台中逢甲店","lat":"24.1795754","lng":"120.6452317","address":"台中西屯區福星路405號","city":"台中"},
{"id":"676","place_id":"ChIJoQdQbyIWaTQRTMPS2rxXJjs","title":"台中逢甲住宿-","lat":"24.1787242","lng":"120.6461055","address":"台中西屯區逢甲路1號","city":"台中"},
{"id":"677","place_id":"ChIJbYemqSMWaTQRH9o8Cznfgz0","title":"逢甲溫家地瓜球","lat":"24.178046","lng":"120.6466665","address":"台中西屯區文華路99-2號","city":"台中"},
{"id":"678","place_id":"ChIJUxax4iIWaTQRpc90-_4axUs","title":"86碳烤雞排","lat":"24.179562","lng":"120.6457857","address":"台中西屯區逢甲路20巷16號","city":"台中"},
{"id":"679","place_id":"ChIJM211zyMWaTQRRcXSedZXIhI","title":"成龍雞排","lat":"24.1770064","lng":"120.6465168","address":"台中西屯區文華路39號","city":"台中"},
{"id":"680","place_id":"ChIJc9DfrYo9aTQRIo8wkhXFiwU","title":"麥當勞-台中逢甲店","lat":"24.17898539999999","lng":"120.6452552","address":"台中西屯區福星路427號","city":"台中"},
{"id":"681","place_id":"ChIJB55rSSIWaTQRsoxtMvwPzWE","title":"大甲芋頭城","lat":"24.1778169","lng":"120.6453584","address":"台中西屯區福星路461巷2-2號","city":"台中"},
{"id":"682","place_id":"ChIJA9XiVSIWaTQRgKmNOUDLals","title":"心蛋餅","lat":"24.178998","lng":"120.645526","address":"台中西屯區逢甲路26號","city":"台中"},
{"id":"683","place_id":"ChIJEy8fDiIWaTQR27qNI1RgOII","title":"黎客商旅","lat":"24.1776889","lng":"120.6437517","address":"台中No. 16號, 至善路234巷, 西屯區","city":"台中"},
{"id":"684","place_id":"ChIJibx2dSIWaTQRBW2_kPXbrEo","title":"薔薇派 逢甲店","lat":"24.1785662","lng":"120.6431746","address":"台中西屯區逢甲路128號","city":"台中"},
{"id":"685","place_id":"ChIJlXFrdyEWaTQRadMkg7DV_7I","title":"Love I Hostel(樂愛度假)","lat":"24.1769043","lng":"120.6448332","address":"台中西屯區No.19 Aly. 28 Ln. 282 Sec. 2 Xitun Rd","city":"台中"},
{"id":"686","place_id":"ChIJswvWAyIWaTQRDKTlw7VyLjE","title":"Mr.38 咖哩美食餐廳（逢甲店）","lat":"24.1770776","lng":"120.6433493","address":"台中西屯區至善路212號","city":"台中"},
{"id":"687","place_id":"ChIJj-XSICIWaTQRX_JgJ4ppSoA","title":"三號創意料理廚房","lat":"24.1765332","lng":"120.6446064","address":"台中西屯區福星路526巷3號1樓","city":"台中"},
{"id":"688","place_id":"ChIJSW4QVB8WaTQRHvUr3evkBxo","title":"韓石館","lat":"24.1767214","lng":"120.6426575","address":"台中西屯區至善路153巷1號","city":"台中"},
{"id":"689","place_id":"ChIJy5Q3QyIWaTQR2RweaIbMAxw","title":"逢甲屋台街","lat":"24.178455","lng":"120.644576","address":"台中西屯區逢甲路73號","city":"台中"},
{"id":"690","place_id":"ChIJX9MNiCEWaTQRWzlUglEvbv8","title":"阿財烤肉","lat":"24.1774163","lng":"120.6450071","address":"台中西屯區福星路476號","city":"台中"},
{"id":"691","place_id":"ChIJdVzLRCIWaTQRsKXM5B_9cbg","title":"ABC-MART(台中福星店)","lat":"24.178505","lng":"120.644907","address":"台中西屯區福星路442號1樓","city":"台中"},
{"id":"692","place_id":"ChIJl1POJSIWaTQRUX12GlO5tS0","title":"那個鍋 - 逢甲総本鋪","lat":"24.1768659","lng":"120.645009","address":"台中西屯區福星路522號","city":"台中"},
{"id":"693","place_id":"ChIJUyVn5BgWaTQR9DFV9fYc0BY","title":"西屯國小","lat":"24.1792187","lng":"120.6404927","address":"台中西屯區西屯路二段300號","city":"台中"},
{"id":"694","place_id":"ChIJR7bftyMWaTQRekQLy_zpX8w","title":"一家之薯","lat":"24.1760028","lng":"120.6421076","address":"台中西屯區至善路121巷18號","city":"台中"},
{"id":"695","place_id":"ChIJkYgs5vQ9aTQRe5mu9Ci_KZw","title":"禾河田素齋","lat":"24.177332","lng":"120.639917","address":"台中西屯區西屯路二段297-8巷68號","city":"台中"},
{"id":"696","place_id":"ChIJtYWzGB8WaTQRWTFI-KFKQhs","title":"皇家蛋糕","lat":"24.1760254","lng":"120.6404343","address":"台中西屯區逢甲路202號","city":"台中"},
{"id":"697","place_id":"ChIJq0c7qRgWaTQRrpG1LxZI8Pg","title":"Mini布朗","lat":"24.1774317","lng":"120.6427219","address":"台中西屯區西屯路二段284之11號","city":"台中"},
{"id":"698","place_id":"ChIJGUOXdiIWaTQRnZEYoXWyEyo","title":"新文心診所","lat":"24.178692","lng":"120.6435","address":"台中西屯區逢甲路112號","city":"台中"},
{"id":"699","place_id":"ChIJkykcqhgWaTQRUsTCvXdoY5Q","title":"卡勒芙咖啡 Colorful Coffe","lat":"24.177263","lng":"120.642932","address":"台中西屯區西屯路二段284-6號","city":"台中"},
{"id":"700","place_id":"ChIJa8357SEWaTQR36bcLCCZiLo","title":"7-ELEVEN 新西屯門市","lat":"24.1761096","lng":"120.6436873","address":"台中西屯區西屯路二段281之3號","city":"台中"},
{"id":"701","place_id":"ChIJzWPRyiIWaTQRW71Y2uHVYeA","title":"逢甲養機場","lat":"24.181797","lng":"120.644607","address":"台中西屯區西安街167號","city":"台中"},
{"id":"702","place_id":"ChIJ64z4zyIWaTQRUmn7DB7naSg","title":"Movan","lat":"24.1811395","lng":"120.6451241","address":"台中No. 6-2 Ln. 327, Fuxing Rd Taichung City 407, Taiwan Taichung Area","city":"台中"},
{"id":"703","place_id":"ChIJTSLi4yIWaTQRhhtA7W3i3JU","title":"逢甲GiGi網路休閒館","lat":"24.180025","lng":"120.645581","address":"台中西屯區逢甲路20巷37號B1","city":"台中"},
{"id":"704","place_id":"ChIJ88_nvnbzaDQRGKpOn9Uk3VA","title":"山泉大飯店","lat":"24.8306741","lng":"121.7781511","address":"宜蘭礁溪鄉礁溪路六段36號","city":"宜蘭"},
{"id":"705","place_id":"ChIJ4fJH2Tn6ZzQRRalfMURnuS0","title":"礁溪轉運站旅遊服務中心","lat":"24.8309462","lng":"121.7776208","address":"宜蘭礁溪鄉公園路16號","city":"宜蘭"},
{"id":"706","place_id":"ChIJL9VSIjj6ZzQRyoFWm83CobE","title":"麗翔酒店連鎖(礁溪館)","lat":"24.8293636","lng":"121.7770252","address":"宜蘭礁溪鄉礁溪路六段6號","city":"宜蘭"},
{"id":"707","place_id":"ChIJ66YrdDf6ZzQR2lB0b7Fs1uU","title":"長榮鳳凰酒店(礁溪)","lat":"24.8310887","lng":"121.7753068","address":"宜蘭礁溪鄉健康路77號","city":"宜蘭"},
{"id":"708","place_id":"ChIJd6vDhTf6ZzQRHl0CVg4UX-w","title":"華閣溫泉飯店","lat":"24.830254","lng":"121.775925","address":"宜蘭礁溪鄉公園路25號","city":"宜蘭"},
{"id":"709","place_id":"ChIJ0w6iijf6ZzQRfqj-dpsJaU0","title":"天隆大飯店","lat":"24.8293831","lng":"121.7765947","address":"宜蘭礁溪鄉礁溪路五段121號","city":"宜蘭"},
{"id":"710","place_id":"ChIJVYo_bjf6ZzQRPSbPBblMLFc","title":"樂山溫泉拉麵二店","lat":"24.8312227","lng":"121.7757601","address":"宜蘭礁溪鄉公園路20號","city":"宜蘭"},
{"id":"711","place_id":"ChIJUbAgjDf6ZzQRbT1MRcbxuk0","title":"帥王溫泉大飯店","lat":"24.8295513","lng":"121.7764615","address":"宜蘭礁溪鄉公園路1號","city":"宜蘭"},
{"id":"712","place_id":"ChIJJU3-eTf6ZzQRfHtqIb2p7gQ","title":"靜界溫泉會館","lat":"24.833186","lng":"121.775835","address":"宜蘭礁溪鄉公園路70巷39弄28號","city":"宜蘭"},
{"id":"713","place_id":"ChIJ66YrdDf6ZzQRZQTJalY8svA","title":"長榮鳳凰酒店-竹芬廳","lat":"24.8310015","lng":"121.7754478","address":"宜蘭3樓, No. 77, 健康路, 礁溪鄉","city":"宜蘭"},
{"id":"714","place_id":"ChIJg2Fgazf6ZzQRxu3HjKrs6dE","title":"玉石公共澡堂","lat":"24.831886","lng":"121.775201","address":"宜蘭礁溪鄉","city":"宜蘭"},
{"id":"715","place_id":"ChIJ7236PTf6ZzQRLX5Hl_EdXIc","title":"綠動湯泉原宿","lat":"24.8320096","lng":"121.774634","address":"宜蘭礁溪鄉公園路85號","city":"宜蘭"},
{"id":"716","place_id":"ChIJQwv29kn6ZzQR8ACrvxU8Mh0","title":"礁溪溫泉公園","lat":"24.8310132","lng":"121.7759664","address":"宜蘭礁溪鄉公園路70巷60號","city":"宜蘭"},
{"id":"717","place_id":"ChIJsSKl1Dn6ZzQRvEh8ZOIg5z8","title":"國父紀念碑","lat":"24.8304394","lng":"121.7767826","address":"宜蘭礁溪鄉","city":"宜蘭"},
{"id":"718","place_id":"ChIJQ4gL7jf6ZzQRzFRw7hgnnXo","title":"年年小館","lat":"24.8290824","lng":"121.7754056","address":"宜蘭礁溪鄉礁溪路五段115號","city":"宜蘭"},
{"id":"719","place_id":"ChIJkxkC3Tf6ZzQRBthdNnv8NdE","title":"HOTEL j礁溪日月光溫泉小旅店（豪美","lat":"24.8288162","lng":"121.7749306","address":"宜蘭礁溪鄉礁溪路五段182號","city":"宜蘭"},
{"id":"720","place_id":"ChIJT-hlwzf6ZzQRE3k9-Y6CJfM","title":"Host-On Exquisite Ho","lat":"24.8291049","lng":"121.7747909","address":"宜蘭Taiwan","city":"宜蘭"},
{"id":"721","place_id":"ChIJtWHYejf6ZzQRXGkwFIiOetU","title":"礁溪劇場","lat":"24.8305963","lng":"121.7765016","address":"宜蘭礁溪鄉公園路16號","city":"宜蘭"},
{"id":"722","place_id":"ChIJudaJ00n6ZzQRWNH90sdzfQo","title":"礁溪轉運站","lat":"24.8310746","lng":"121.7773895","address":"宜蘭礁溪鄉礁溪路六段17號","city":"宜蘭"},
{"id":"723","place_id":"ChIJdb24xDf6ZzQR_BSS6mJgUOI","title":"和風溫泉礁溪館","lat":"24.8290279","lng":"121.7745075","address":"宜蘭礁溪鄉礁溪路五段97號","city":"宜蘭"},
{"id":"724","place_id":"ChIJ3X4mW-jkZzQRiGDnD-q1OQY","title":"東方紅鐵板創意料理\/宜蘭美食\/礁溪美食\/","lat":"24.8297794","lng":"121.7735485","address":"宜蘭礁溪鄉健康路36號","city":"宜蘭"},
{"id":"725","place_id":"ChIJ4Sr7vDz6ZzQRCVLYCMSQigc","title":"One Well Hot Spring","lat":"24.8287473","lng":"121.7744073","address":"宜蘭礁溪鄉礁溪路五段172號No. 172, Sec. 5","city":"宜蘭"},
{"id":"726","place_id":"ChIJAcJDKUj6ZzQRdMYB5YZHWfw","title":"林北烤好串燒居酒屋","lat":"24.8281573","lng":"121.7741012","address":"宜蘭礁溪鄉溫泉路48號","city":"宜蘭"},
{"id":"727","place_id":"ChIJc9GeJEj6ZzQRK4qd81qkAzw","title":"上乘三家 B3House 礁溪店","lat":"24.827778","lng":"121.77473","address":"宜蘭礁溪鄉中山路二段171-1號","city":"宜蘭"},
{"id":"728","place_id":"ChIJkyY4PEj6ZzQRh_iYcpVOstc","title":"鴻月莊溫泉客棧","lat":"24.8273467","lng":"121.7749497","address":"宜蘭礁溪鄉溫泉路12號","city":"宜蘭"},
{"id":"729","place_id":"ChIJR_g2Kkj6ZzQRwuN7fOTsroY","title":"胖胖機車出租精品店(礁溪溫泉店)","lat":"24.8283308","lng":"121.7738961","address":"宜蘭礁溪鄉溫泉路60號","city":"宜蘭"},
{"id":"730","place_id":"ChIJKV2Q6En6ZzQRpPiFCHViARw","title":"川湯春天溫泉飯店","lat":"24.82828839999999","lng":"121.7719988","address":"宜蘭礁溪鄉德陽路43號","city":"宜蘭"},
{"id":"731","place_id":"ChIJxRXhyEn6ZzQR-zwtoyID2l4","title":"中冠礁溪大飯店","lat":"24.8275641","lng":"121.7730351","address":"宜蘭礁溪鄉德陽路6號","city":"宜蘭"},
{"id":"732","place_id":"ChIJBd-6tkn6ZzQRtFarM9HB6_c","title":"天香回味養生煮","lat":"24.827084","lng":"121.773277","address":"宜蘭礁溪鄉德陽路17號","city":"宜蘭"},
{"id":"733","place_id":"ChIJx9wCwUn6ZzQR-TQNKQBAr_k","title":"礁溪鳳凰德陽川泉旅","lat":"24.8274963","lng":"121.7723803","address":"宜蘭礁溪鄉礁溪路五段118號","city":"宜蘭"},
{"id":"734","place_id":"ChIJiSXpPUj6ZzQREsyVIFrcLTg","title":"永定租車礁溪店","lat":"24.827333","lng":"121.775037","address":"宜蘭礁溪鄉溫泉路8號","city":"宜蘭"},
{"id":"735","place_id":"ChIJcTJMrUn6ZzQR0_1jRD5e7nU","title":"礁溪ㄔˇ留香 (現做現蒸)湯包專賣","lat":"24.8265661","lng":"121.7736533","address":"宜蘭礁溪鄉中山路二段154號","city":"宜蘭"},
{"id":"736","place_id":"ChIJAWvylEn6ZzQREDyU7vZFBHQ","title":"宜蘭滷之鄉","lat":"24.8275372","lng":"121.7720094","address":"宜蘭礁溪鄉礁溪路五段69號","city":"宜蘭"},
{"id":"737","place_id":"ChIJa36O5jb6ZzQRUx3ZdWu3CKw","title":"阿先湯泉養生會館","lat":"24.8322842","lng":"121.7732769","address":"宜蘭礁溪鄉忠孝1路18號","city":"宜蘭"},
{"id":"738","place_id":"ChIJ5-s-4kv6ZzQR5JvnM0qOrSs","title":"礁溪鄉公有立體停車場","lat":"24.8298711","lng":"121.7723004","address":"宜蘭礁溪鄉","city":"宜蘭"},
{"id":"739","place_id":"ChIJYfu6_Df6ZzQRUpYPvXI5ABE","title":"台灣農林茗茶 礁溪店","lat":"24.8284217","lng":"121.7758077","address":"宜蘭礁溪鄉中山路二段236號","city":"宜蘭"},
{"id":"740","place_id":"ChIJH1JCIzj6ZzQRTOxjCAS72T4","title":"天使輕旅 礁溪溫泉 Angels Inn","lat":"24.8293723","lng":"121.7771638","address":"宜蘭礁溪鄉礁溪路六段12號","city":"宜蘭"},
{"id":"741","place_id":"ChIJ06qzLEj6ZzQRVdRoow-php0","title":"復興川菜","lat":"24.82819870000001","lng":"121.7736723","address":"宜蘭礁溪鄉溫泉路57號1樓","city":"宜蘭"},
{"id":"742","place_id":"ChIJI8iBL0j6ZzQRRKxQnCmgIhU","title":"鴨喜露","lat":"24.8279202","lng":"121.7742861","address":"宜蘭礁溪鄉溫泉路34號","city":"宜蘭"},
{"id":"743","place_id":"ChIJSwW9mUn6ZzQRtjj7ZoVd_6A","title":"奕順軒","lat":"24.8268738","lng":"121.771906","address":"宜蘭礁溪鄉礁溪路五段96號","city":"宜蘭"},
{"id":"744","place_id":"ChIJPd-KBUn6ZzQRqr05exNiIhU","title":"和壽司","lat":"24.8257071","lng":"121.7729767","address":"宜蘭礁溪鄉中山路二段124號","city":"宜蘭"},
{"id":"745","place_id":"ChIJV_RVn4v7ZzQRSVj-tyLpD8E","title":"玉仁八寶冬粉 2號店","lat":"24.82642359999999","lng":"121.7731651","address":"宜蘭礁溪鄉中山路二段131號","city":"宜蘭"},
{"id":"746","place_id":"ChIJU1DTeUn6ZzQRqBIQA3xjGR8","title":"58度溫泉湯苑會館","lat":"24.82720299999999","lng":"121.771856","address":"宜蘭礁溪鄉礁溪路五段61號","city":"宜蘭"},
{"id":"747","place_id":"ChIJb0crGjb6ZzQRX4bVRhuCJMw","title":"香檳溫泉大飯店","lat":"24.8295455","lng":"121.7717867","address":"宜蘭礁溪鄉忠孝路8號","city":"宜蘭"},
{"id":"748","place_id":"ChIJaUXY70n6ZzQRKU6mxhlE22s","title":"亞諾溫泉行旅","lat":"24.8283679","lng":"121.7713655","address":"宜蘭礁溪鄉仁愛路3號","city":"宜蘭"},
{"id":"749","place_id":"ChIJx9FS-kn6ZzQRSGWW-g02r1o","title":"礁溪原湯商旅","lat":"24.828649","lng":"121.771332","address":"宜蘭礁溪鄉仁愛路6號","city":"宜蘭"},
{"id":"750","place_id":"ChIJc6aIhkn6ZzQRgipkXvptTh8","title":"冒煙的石頭溫泉度假旅館","lat":"24.827004","lng":"121.771186","address":"宜蘭礁溪鄉信義路34巷33號","city":"宜蘭"},
{"id":"751","place_id":"ChIJP9m__kn6ZzQRSAHBzbadIZI","title":"添喜海鮮小吃","lat":"24.8289549","lng":"121.7709061","address":"宜蘭礁溪鄉德陽路83號","city":"宜蘭"},
{"id":"752","place_id":"ChIJx2SPzEv6ZzQRgu4tlJnGnoc","title":"沐恩國際溫泉渡假飯店 Muen Hot","lat":"24.82722499999999","lng":"121.770291","address":"宜蘭礁溪鄉仁愛路29號","city":"宜蘭"},
{"id":"753","place_id":"ChIJoVkn2Ev6ZzQRkbYpSix13Bo","title":"湯泉之家溫泉渡假行館","lat":"24.8269517","lng":"121.7708233","address":"宜蘭礁溪鄉信義路34巷16號","city":"宜蘭"},
{"id":"754","place_id":"ChIJm1pAbkr6ZzQRdgyZY_eYSlQ","title":"泉鄉風華","lat":"24.8289101","lng":"121.7702431","address":"宜蘭礁溪鄉德陽路95號","city":"宜蘭"},
{"id":"755","place_id":"ChIJ_xfHYkn6ZzQRVOVnettPMjw","title":"泉鄉雅舍","lat":"24.826677","lng":"121.7702298","address":"宜蘭礁溪鄉信義路40號","city":"宜蘭"},
{"id":"756","place_id":"ChIJDYmfgkn6ZzQR-85bqh3xuDg","title":"有麵煮私房小吃-礁溪店","lat":"24.826476","lng":"121.771456","address":"宜蘭礁溪鄉礁溪路五段33號1樓","city":"宜蘭"},
{"id":"757","place_id":"ChIJlfMFoSOiFDQRetVF43TeccQ","title":"sweet home","lat":"24.4102267","lng":"118.322944","address":"縣金No. 120-1, Xiaoximen, Jincheng","city":"縣金"},
{"id":"758","place_id":"ChIJY4aEPN2jFDQRqoBhO8N-12s","title":"溫馨庭園民宿","lat":"24.410272","lng":"118.3230086","address":"縣金金城鎮小西門120之1號","city":"縣金"},
{"id":"759","place_id":"ChIJFQxhthWjFDQR2J9A7C1QOQM","title":"協磁機電工程有限公司","lat":"24.4101674","lng":"118.3223196","address":"縣金No. 120之2號, 小西門, 金城鎮","city":"縣金"},
{"id":"760","place_id":"ChIJbXiwjzajFDQRr6EueeQOZ_E","title":"金彩油漆工程行","lat":"24.4093956","lng":"118.3216444","address":"縣金金城鎮小西門120之6號","city":"縣金"},
{"id":"761","place_id":"ChIJ4x70wUSiFDQR-WmxpNWal2A","title":"榜林5-7","lat":"24.434524","lng":"118.33047","address":"縣金金寧鄉榜林村5-7號","city":"縣金"},
{"id":"762","place_id":"ChIJq7Np70SiFDQRYlGTnj6TB8Q","title":"榜林風獅爺","lat":"24.4340073","lng":"118.3308273","address":"縣金金寧鄉","city":"縣金"},
{"id":"763","place_id":"ChIJ4RtfqEOiFDQRuyq6MGozozA","title":"紫蓮寺","lat":"24.4338505","lng":"118.3263224","address":"縣金金寧鄉","city":"縣金"},
{"id":"764","place_id":"ChIJAdetXmqiFDQRbB2bF3DgQuc","title":"悟饕池上飯包","lat":"24.4351435","lng":"118.3269042","address":"縣金金寧鄉伯玉路一段218-5號","city":"縣金"},
{"id":"765","place_id":"ChIJjwA4RkOiFDQR3Z_8I03zVH4","title":"無鍋底火鍋","lat":"24.4353389","lng":"118.3266136","address":"縣金金寧鄉伯玉路一段218-6號","city":"縣金"},
{"id":"766","place_id":"ChIJ8-QcZUSiFDQRgY11zBLWEPU","title":"榜林東洲路口","lat":"24.432773","lng":"118.329521","address":"縣金","city":"縣金"},
{"id":"767","place_id":"ChIJv1hdZUSiFDQRb-H4-AuEMmE","title":"榜林東洲路口","lat":"24.432662","lng":"118.329483","address":"縣金","city":"縣金"},
{"id":"768","place_id":"ChIJHYYrwESiFDQRf8kiFv-CMNI","title":"榜林一","lat":"24.434516","lng":"118.330291","address":"縣金","city":"縣金"},
{"id":"769","place_id":"ChIJXyFwoaWjFDQRfgUT2_tqpHM","title":"榜林飲食堂","lat":"24.4333963","lng":"118.3305618","address":"縣金金寧鄉135_2號","city":"縣金"},
{"id":"770","place_id":"ChIJ_zXQuCmjFDQRW_7gS2D4LRE","title":"龍豪五金行\/金門五金行 水電材料 百貨賣","lat":"24.4349512","lng":"118.3274351","address":"縣金金寧鄉伯玉路一段259-1號","city":"縣金"},
{"id":"771","place_id":"ChIJgXG_wUSiFDQR5NWBBcV6Wu4","title":"榜林一","lat":"24.434566","lng":"118.330383","address":"縣金","city":"縣金"},
{"id":"772","place_id":"ChIJ93ONUm-jFDQRA65ja47WUU8","title":"Dsmile系统柜，橱柜，天花板","lat":"24.434488","lng":"118.3268309","address":"縣金金寧鄉伯玉路一段205號之一","city":"縣金"},
{"id":"773","place_id":"ChIJs9xgFUOiFDQRWMLWjAYoVmM","title":"萬成食品工廠","lat":"24.4350983","lng":"118.3271917","address":"縣金金寧鄉伯玉路一段211號","city":"縣金"},
{"id":"774","place_id":"ChIJX5yKE0OiFDQRkUTp9wcO-HM","title":"農產中心","lat":"24.434837","lng":"118.326934","address":"縣金","city":"縣金"},
{"id":"775","place_id":"ChIJMa-XUEOiFDQRG81Ej25xCMQ","title":"卡登實業股份有限公司","lat":"24.4356473","lng":"118.3281929","address":"縣金金寧鄉伯玉路一段289號","city":"縣金"},
{"id":"776","place_id":"ChIJIdFzyESiFDQRI2uejtzUpE0","title":"裕林營造有限公司","lat":"24.435216","lng":"118.330235","address":"縣金金寧鄉榜林村榜林13號","city":"縣金"},
{"id":"777","place_id":"ChIJfduHCEOiFDQRlt9SFBJNa8s","title":"冠城自助餐、便當","lat":"24.4340815","lng":"118.326513","address":"縣金","city":"縣金"},
{"id":"778","place_id":"ChIJyS_l50SiFDQRt_8g-5Bstos","title":"建華營造股份有限公司","lat":"24.4343297","lng":"118.33089","address":"縣金金寧鄉榜林村榜林好樂迪後面","city":"縣金"},
{"id":"779","place_id":"ChIJ5cOUok6jFDQRhrAD-IPqrYs","title":"日盛當舖","lat":"24.4323148","lng":"118.3304362","address":"縣金金寧鄉林湖路295號","city":"縣金"},
{"id":"780","place_id":"ChIJ_wirFkOiFDQRFgFap02-uAo","title":"農產中心","lat":"24.434871","lng":"118.32682","address":"縣金","city":"縣金"},
{"id":"781","place_id":"ChIJAc_zrwSjFDQRJe3dmBEOl4o","title":"雄賓電機行","lat":"24.4505299","lng":"118.3440814","address":"縣金金寧鄉環島北路二段315號","city":"縣金"},
{"id":"782","place_id":"ChIJ6-Z9yv2iFDQRRra7r-_jpbI","title":"東堡溝","lat":"24.450805","lng":"118.34346","address":"縣金","city":"縣金"},
{"id":"783","place_id":"ChIJB7xGyv2iFDQRiQYnXHDh1OE","title":"東堡溝","lat":"24.450704","lng":"118.343528","address":"縣金","city":"縣金"},
{"id":"784","place_id":"ChIJDZbKwQKjFDQRsdRcE6A2_-Q","title":"靜巷八號民宿Jing Xiang no.","lat":"24.4527328","lng":"118.3478445","address":"縣金金寧鄉環島北路二段558巷1弄8號","city":"縣金"},
{"id":"785","place_id":"ChIJhXZzgnKjFDQRs2jIStnGIPk","title":"瓊林水庫","lat":"24.449066","lng":"118.3720219","address":"縣金金湖鎮","city":"縣金"},
{"id":"786","place_id":"ChIJhypV_HKjFDQR2uFAe4hHWxA","title":"伯玉路三段","lat":"24.446561","lng":"118.371955","address":"縣金","city":"縣金"},
{"id":"787","place_id":"ChIJ7YCS_XKjFDQReEt_T6AnLSg","title":"伯玉路三段","lat":"24.44642","lng":"118.372024","address":"縣金","city":"縣金"},
{"id":"788","place_id":"ChIJq3ZzgnKjFDQRZF7zyaCGmgk","title":"Old Min House","lat":"24.449066","lng":"118.372025","address":"縣金No. 153, Qionglin, 金湖鎮","city":"縣金"},
{"id":"789","place_id":"ChIJq3ZzgnKjFDQRMYb26TebdC8","title":"Qiong Lin 92 Homesta","lat":"24.449066","lng":"118.372025","address":"縣金No. 92, Qionglin, Jinhu","city":"縣金"},
{"id":"790","place_id":"ChIJQ5xtZXOjFDQRlmvxp3LKm8U","title":"金門縣","lat":"24.444348","lng":"118.371628","address":"縣金金門縣金湖鎮","city":"縣金"},
{"id":"791","place_id":"ChIJy9GB2ZukFDQRQeCrxMnImlI","title":"石山","lat":"24.448335","lng":"118.400798","address":"縣金金湖鎮","city":"縣金"},
{"id":"792","place_id":"ChIJAZAmoaukFDQReXkzjUtL8D4","title":"保安殿","lat":"24.4736712","lng":"118.3970147","address":"縣金金沙鎮何厝51之1號","city":"縣金"},
{"id":"793","place_id":"ChIJ9TCBCqukFDQR0jGvayW7MOA","title":"何厝風獅爺二","lat":"24.4725216","lng":"118.3980663","address":"縣金金沙鎮","city":"縣金"},
{"id":"794","place_id":"ChIJ1cNkoKukFDQRhZtJOSUV1JM","title":"何厝風獅爺","lat":"24.473781","lng":"118.397171","address":"縣金","city":"縣金"},
{"id":"795","place_id":"ChIJtWSSXWC7FDQRFKpAOeH8Ej0","title":"田墩養殖區","lat":"24.501041","lng":"118.3987473","address":"縣金金沙鎮","city":"縣金"},
{"id":"796","place_id":"ChIJrf4Ow2G7FDQR5StCyKyUeiE","title":"田墩海堤","lat":"24.502784","lng":"118.393821","address":"縣金金沙鎮","city":"縣金"},
{"id":"797","place_id":"ChIJx17obmC7FDQRE9xuOvXRsn8","title":"出海口觀景平台","lat":"24.4996416","lng":"118.3948985","address":"縣金金沙鎮","city":"縣金"},
{"id":"798","place_id":"ChIJge9R4PmiFDQR-Zgho6Uj4B8","title":"海洋餐廳","lat":"24.450049","lng":"118.334646","address":"縣金","city":"縣金"},
{"id":"799","place_id":"ChIJd0iaHPqiFDQREPbRvU7kX_w","title":"金門縣政府警察局金城分局金寧分駐所","lat":"24.4514223","lng":"118.3353571","address":"縣金金寧鄉仁愛新村2號","city":"縣金"},
{"id":"800","place_id":"ChIJHQaqk_miFDQRhM2Xhgzce3c","title":"台灣彩券","lat":"24.4500885","lng":"118.3361517","address":"縣金金寧鄉仁愛新村139號","city":"縣金"},
{"id":"801","place_id":"ChIJdfqvl_miFDQRbfYsz-oa3kw","title":"力霸金酒特產","lat":"24.449751","lng":"118.336594","address":"縣金金寧鄉仁愛新村145號","city":"縣金"},
{"id":"802","place_id":"ChIJvRxbUEOiFDQR2-5mx7OsNpw","title":"合康家庭診所","lat":"24.4501311","lng":"118.3345677","address":"縣金金寧鄉仁愛新村98號","city":"縣金"},
{"id":"803","place_id":"ChIJoe5LVPeiFDQRXDO2EYRdQOk","title":"金門縣金寧鄉立圖書館","lat":"24.4510938","lng":"118.334305","address":"縣金金寧鄉仁愛新村7號","city":"縣金"},
{"id":"804","place_id":"ChIJB2xL-fmiFDQRLjZKHLb-CkI","title":"金寧鄉公所","lat":"24.450966","lng":"118.334887","address":"縣金","city":"縣金"},
{"id":"805","place_id":"ChIJtTme8vmiFDQRAN7dr0mzhJk","title":"金寧鄉衛生所","lat":"24.4512602","lng":"118.3351353","address":"縣金","city":"縣金"},
{"id":"806","place_id":"ChIJw3t_i_miFDQRM1gJJ_G7pOU","title":"天溫油漆承包工程","lat":"24.450629","lng":"118.336148","address":"縣金金寧鄉仁愛新村168號3樓","city":"縣金"},
{"id":"807","place_id":"ChIJtTme8vmiFDQREduOT2owTNU","title":"陳水湖診所","lat":"24.450326","lng":"118.335841","address":"縣金金寧鄉仁愛新邨131號","city":"縣金"},
{"id":"808","place_id":"ChIJhSQekPmiFDQRMWXgCIDP4I4","title":"水管家淨水","lat":"24.4501265","lng":"118.3366354","address":"縣金金寧鄉仁愛新村181號","city":"縣金"},
{"id":"809","place_id":"ChIJfwOqk_miFDQRBFqpAx8ZLjQ","title":"豐元中醫診所","lat":"24.450086","lng":"118.3360828","address":"縣金金寧鄉仁愛新村139號","city":"縣金"},
{"id":"810","place_id":"ChIJ4bCV-fmiFDQRw5tT1mO2rSM","title":"Longmen Inn Bed and","lat":"24.4509","lng":"118.33513","address":"縣金No. 3, Lincuo, Jinning, Kinmen County","city":"縣金"},
{"id":"811","place_id":"ChIJZ6EaEPqiFDQRTLTyIasaWXo","title":"更生保護會行政中心","lat":"24.451858","lng":"118.335281","address":"縣金","city":"縣金"},
{"id":"812","place_id":"ChIJl0hOBfqiFDQR6phcd0W5QyA","title":"更生保護會行政中心","lat":"24.451778","lng":"118.335205","address":"縣金","city":"縣金"},
{"id":"813","place_id":"ChIJrbA1-fmiFDQRZ3ZjIkUxBW4","title":"梁耀南建築師事務所","lat":"24.450966","lng":"118.334887","address":"縣金金寧鄉仁愛新村108號1樓","city":"縣金"},
{"id":"814","place_id":"ChIJl5nQBfqiFDQRCg8iEW7gMSc","title":"福建更生保護協會","lat":"24.4517591","lng":"118.334901","address":"縣金金寧鄉仁愛新村5號","city":"縣金"},
{"id":"815","place_id":"ChIJWWtV_PmiFDQRHyR5LcDZS2s","title":"建懋營造有限公司","lat":"24.4507473","lng":"118.3346958","address":"縣金金寧鄉仁愛新村75號","city":"縣金"},
{"id":"816","place_id":"ChIJefLLnvmiFDQRnYRYC9muc1I","title":"仁愛新村","lat":"24.449645","lng":"118.337081","address":"縣金","city":"縣金"},
{"id":"817","place_id":"ChIJM3QnSjaiFDQRuP4ixBI1AIY","title":"南科機電有限公司","lat":"24.4222277","lng":"118.3382061","address":"縣金金寧鄉環島南路一段102號1樓","city":"縣金"},
{"id":"818","place_id":"ChIJ20FG4kmiFDQRGE6-1fU49BY","title":"后湖綜合公園","lat":"24.423271","lng":"118.339363","address":"縣金","city":"縣金"},
{"id":"819","place_id":"ChIJh_TS40miFDQResXrok-JcMs","title":"后湖綜合公園","lat":"24.423343","lng":"118.339294","address":"縣金","city":"縣金"},
{"id":"820","place_id":"ChIJpe6Y6DKjFDQRA7484lIGRyM","title":"星際大棧民宿","lat":"24.4213576","lng":"118.3373881","address":"縣金金寧鄉環島南路一段199號","city":"縣金"},
{"id":"821","place_id":"ChIJKRmjzzWiFDQRUbWU8QSTR-o","title":"金門縣立賢庵國民小學垵湖分校","lat":"24.4209737","lng":"118.3411826","address":"縣金金寧鄉后湖87號","city":"縣金"},
{"id":"822","place_id":"ChIJk9c6O12jFDQRJuciTxoGu18","title":"欽旌節牌坊","lat":"24.4598568","lng":"118.3822196","address":"縣金金湖鎮","city":"縣金"},
{"id":"823","place_id":"ChIJnUwQH12jFDQRHpBTdkXujiw","title":"屠宰場","lat":"24.460243","lng":"118.382843","address":"縣金","city":"縣金"},
{"id":"824","place_id":"ChIJHXcRWFa7FDQRhEaeNB7PZl0","title":"長福里","lat":"24.484224","lng":"118.395805","address":"縣金","city":"縣金"},
{"id":"825","place_id":"ChIJJble-Fa7FDQR---XIQ16Afo","title":"長福里","lat":"24.484403","lng":"118.395973","address":"縣金","city":"縣金"},
{"id":"826","place_id":"ChIJbTQKVla7FDQRPhabxj4tZrg","title":"長福里","lat":"24.484617","lng":"118.39579","address":"縣金","city":"縣金"},
{"id":"827","place_id":"ChIJPRzt2lW7FDQR2O_gJc15Vtc","title":"后宅","lat":"24.481845","lng":"118.395034","address":"縣金","city":"縣金"},
{"id":"828","place_id":"ChIJG0Ii21W7FDQRnZqMVzjWu-0","title":"后宅","lat":"24.48183","lng":"118.39492","address":"縣金","city":"縣金"},
{"id":"829","place_id":"ChIJy79WVOWiFDQR4b7-cwdc20U","title":"Hyatt Three B&B","lat":"24.4568636","lng":"118.3347166","address":"縣金No. 32, Anqi, Jinning","city":"縣金"},
{"id":"830","place_id":"ChIJqal3L-WiFDQRhk0thOPM6z4","title":"威靈殿","lat":"24.45686299999999","lng":"118.3368939","address":"縣金金寧鄉中堡66之1號","city":"縣金"},
{"id":"831","place_id":"ChIJuxwAAPCiFDQRaqyejdBz99c","title":"Breeze and Waves Hos","lat":"24.4567205","lng":"118.3345061","address":"縣金","city":"縣金"},
{"id":"832","place_id":"ChIJVVVVVeWiFDQRP1P9XcGMFhg","title":"金門縣台灣彰化同鄉會","lat":"24.4567205","lng":"118.3345061","address":"縣金金寧鄉湖埔村埔後213號","city":"縣金"},
{"id":"833","place_id":"ChIJVVVVVeWiFDQRnEiuCjurEso","title":"益昌烏蛌o","lat":"24.4567205","lng":"118.3345061","address":"縣金金寧鄉安美村山灶1號之1","city":"縣金"},
{"id":"834","place_id":"ChIJVVVVVeWiFDQRS1rl1OseUrs","title":"青霖工程行","lat":"24.4567205","lng":"118.3345061","address":"縣金","city":"縣金"},
{"id":"835","place_id":"ChIJVVVVVeWiFDQRwjPbI_abMkg","title":"金馬玉堂民宿","lat":"24.4567205","lng":"118.3345061","address":"縣金金寧鄉后湖村64號","city":"縣金"},
{"id":"836","place_id":"ChIJVVVVVeWiFDQR2YLGvwd4Ieg","title":"利順建設有限公司","lat":"24.4567205","lng":"118.3345061","address":"縣金金寧鄉盤山村頂堡151號","city":"縣金"},
{"id":"837","place_id":"ChIJeQAAAPCiFDQRl904EHYsg58","title":"金門藍蓮花民宿","lat":"24.45672","lng":"118.334506","address":"縣金金门下埔下329号","city":"縣金"},
{"id":"838","place_id":"ChIJQSIAAPCiFDQR7pfbDoMMWhM","title":"Wefun Inn","lat":"24.45672","lng":"118.3345","address":"縣金No.303, Xiapuxia, Jinning","city":"縣金"},
{"id":"839","place_id":"ChIJzcitNuWjFDQRaejRBj9TBjo","title":"說走就走的旅行＝阿水伯古蹟民宿","lat":"24.4562133","lng":"118.3344562","address":"縣金金寧鄉湖下村217號","city":"縣金"},
{"id":"840","place_id":"ChIJgzEwH3-jFDQRK44V8t9do3c","title":"金門下田民宿","lat":"24.4494816","lng":"118.3288843","address":"縣金金寧鄉大學路32巷98號","city":"縣金"},
{"id":"841","place_id":"ChIJ8xLVn_eiFDQROEY8KiuyZaI","title":"榕榕園藝","lat":"24.4488301","lng":"118.3332194","address":"縣金","city":"縣金"},
{"id":"842","place_id":"ChIJWXstdPeiFDQRSvJym3Ydzko","title":"環島北路","lat":"24.448984","lng":"118.333366","address":"縣金","city":"縣金"},
{"id":"843","place_id":"ChIJS-DmdfeiFDQRXhTuomkbO2g","title":"環島北路","lat":"24.448877","lng":"118.333381","address":"縣金","city":"縣金"},
{"id":"844","place_id":"ChIJ--GJLfaiFDQRtS1JftGu3dw","title":"長安山","lat":"24.447182","lng":"118.331335","address":"縣金金寧鄉","city":"縣金"},
{"id":"845","place_id":"ChIJD11-TjqjFDQRAowMMUVyKoQ","title":"金寧幸福之家","lat":"24.4472679","lng":"118.3299977","address":"縣金金寧鄉環島北路一段369-3號","city":"縣金"},
{"id":"846","place_id":"ChIJ70TZ8BSiFDQRT8LTUZGitRU","title":"莒光樓","lat":"24.42496869999999","lng":"118.3190002","address":"縣金金城鎮賢城路1號","city":"縣金"},
{"id":"847","place_id":"ChIJlxvAuGqiFDQRXoKn1YB3ORg","title":"金門101民宿","lat":"24.4280691","lng":"118.3215736","address":"縣金金城鎮環島西路一段101號","city":"縣金"},
{"id":"848","place_id":"ChIJ2_2_uGqiFDQR0QVkUqtXfTI","title":"永鑫牙醫診所","lat":"24.4283182","lng":"118.3215459","address":"縣金金城鎮環島西路一段101號","city":"縣金"},
{"id":"849","place_id":"ChIJqZjnjWqiFDQRGa7EuNxQTNg","title":"燦星旅遊網","lat":"24.4288546","lng":"118.3216848","address":"縣金金城鎮環島西路一段65號","city":"縣金"},
{"id":"850","place_id":"ChIJZX8ySRWiFDQRO0var8arJG4","title":"金展工程行","lat":"24.4262524","lng":"118.3216962","address":"縣金金城鎮環島西路一段161巷9號","city":"縣金"},
{"id":"851","place_id":"ChIJfcMJa2ijFDQRCpQi5tBYqLU","title":"勝騏置產\/勝騏營造有限公司- 金門房地產","lat":"24.4272514","lng":"118.3213131","address":"縣金金城鎮環島西路一段239巷一弄18號","city":"縣金"},
{"id":"852","place_id":"ChIJr8DYyWqiFDQR33kLCL7tFms","title":"歡喜樓餐廳","lat":"24.4272466","lng":"118.3213311","address":"縣金金城鎮環島西路一段129號","city":"縣金"},
{"id":"853","place_id":"ChIJw5mlsmqiFDQRCjBoWWDhF0U","title":"傳浯國際管理顧問有限公司","lat":"24.42671","lng":"118.3220543","address":"縣金","city":"縣金"},
{"id":"854","place_id":"ChIJe_t0uWqiFDQRCaWKFDLli58","title":"金巴黎KTV","lat":"24.4276084","lng":"118.3216384","address":"縣金","city":"縣金"},
{"id":"855","place_id":"ChIJByuWuGqiFDQRtaRxsG6D7wA","title":"一心牙醫診所","lat":"24.4277261","lng":"118.321413","address":"縣金金城鎮環島西路一段101號","city":"縣金"},
{"id":"856","place_id":"ChIJ2_2_uGqiFDQR3GDTBWvZwg0","title":"冠軍小客車租賃行","lat":"24.42772669999999","lng":"118.3214318","address":"縣金金城鎮環島西路一段101號","city":"縣金"},
{"id":"857","place_id":"ChIJC9q7vmqiFDQRyNUmZwndBXI","title":"阿雪音樂坊","lat":"24.4278186","lng":"118.3216538","address":"縣金","city":"縣金"},
{"id":"858","place_id":"ChIJfbofqhWiFDQRFQHzN2wF9oQ","title":"豐蓮山","lat":"24.42423699999999","lng":"118.320254","address":"縣金","city":"縣金"},
{"id":"859","place_id":"ChIJYxSLUHSjFDQRHe8tzQq4U64","title":"炭博士文創特產","lat":"24.4256297","lng":"118.318451","address":"縣金金城鎮賢城路1號","city":"縣金"},
{"id":"860","place_id":"ChIJ-X3KJKajFDQRBdFrKexm9jg","title":"吃醋啦 金門旗艦店","lat":"24.4256465","lng":"118.3184323","address":"縣金金城鎮賢城路1號莒光樓正對面","city":"縣金"},
{"id":"861","place_id":"ChIJlUUQqKOjFDQRBsYTIoMBBgc","title":"台客檳榔-莒光樓分店 | 古早味冬瓜茶","lat":"24.4256465","lng":"118.3184323","address":"縣金金城鎮賢城路1號","city":"縣金"},
{"id":"862","place_id":"ChIJQ_4SURSiFDQRf97-V2oFrvk","title":"莒光樓","lat":"24.424024","lng":"118.319427","address":"縣金","city":"縣金"},
{"id":"863","place_id":"ChIJPaPgUBSiFDQRMlbsCR-Gw-Q","title":"莒光樓","lat":"24.424074","lng":"118.319328","address":"縣金","city":"縣金"},
{"id":"864","place_id":"ChIJKZjGjGqiFDQRZmifTJtX2ZE","title":"燦坤3C","lat":"24.4288546","lng":"118.3216848","address":"縣金金城鎮環島西路一段65號","city":"縣金"},
{"id":"865","place_id":"ChIJI4n4tcOkFDQRBFB-IIaqJPI","title":"綠園餐館","lat":"24.452461","lng":"118.423616","address":"縣金金湖鎮南雄16號","city":"縣金"},
{"id":"866","place_id":"ChIJp1kztk-lFDQRLZv7WltT8OE","title":"金門縣野生動物救援暨保育協會","lat":"24.4512771","lng":"118.42368","address":"縣金金湖鎮南雄30號","city":"縣金"},
{"id":"867","place_id":"ChIJU8lOVsKkFDQR4VNwj1iPQLo","title":"下莊","lat":"24.451398","lng":"118.424957","address":"縣金","city":"縣金"},
{"id":"868","place_id":"ChIJa5MussOkFDQRTbhxgaGqSSw","title":"慈濟基金會(金門共修處)","lat":"24.452347","lng":"118.424188","address":"縣金金門縣金湖鎮山外里南雄29號","city":"縣金"},
{"id":"869","place_id":"ChIJ0Zc3-sKkFDQRTRwwovQGukw","title":"金門皇家酒廠股份有限公司","lat":"24.451218","lng":"118.425521","address":"縣金金湖鎮太湖劃測段418地號2樓","city":"縣金"},
{"id":"870","place_id":"ChIJfwSY-8KkFDQRAy4lSPTznj4","title":"正新商店","lat":"24.4513307","lng":"118.4255761","address":"縣金南投市中興路3號金門 縣 金 湖 鎮 號","city":"縣金"},
{"id":"871","place_id":"ChIJHxBl-8KkFDQRIt0wN0N6KeE","title":"雅天冰果室","lat":"24.451358","lng":"118.4256728","address":"縣金金湖鎮中興路下莊11號","city":"縣金"},
{"id":"872","place_id":"ChIJuWcjUe2kFDQR0Nmvvi2hmL0","title":"盧冠宇牙醫診所","lat":"24.4501558","lng":"118.4253446","address":"縣金金湖鎮下莊中興路101號","city":"縣金"},
{"id":"873","place_id":"ChIJn_oy48KkFDQRvLEYBgZUaCo","title":"金門世貿高粱特產專賣店","lat":"24.4515257","lng":"118.4258241","address":"縣金金湖鎮中興路下莊21號","city":"縣金"},
{"id":"874","place_id":"ChIJAV_GCSylFDQRilLDnBa-lLU","title":"彩虹行館","lat":"24.45015459999999","lng":"118.4254734","address":"縣金草屯鎮中興路101號2樓號金湖鎮","city":"縣金"},
{"id":"875","place_id":"ChIJxaOE4sKkFDQRi5E45LKsHSY","title":"精華鐘錶店","lat":"24.4516549","lng":"118.4259445","address":"縣金金湖鎮光武路39號","city":"縣金"},
{"id":"876","place_id":"ChIJneZw4sKkFDQRIE6dFaiBHFE","title":"西門町理髮廳","lat":"24.4516293","lng":"118.4259988","address":"縣金金湖鎮光武路35號","city":"縣金"},
{"id":"877","place_id":"ChIJM6lQv8OkFDQRyQ9MQZodPWk","title":"南雄風獅爺","lat":"24.453207","lng":"118.423637","address":"縣金","city":"縣金"},
{"id":"878","place_id":"ChIJ1zU7G8OkFDQR849xLGtIook","title":"下莊","lat":"24.452159","lng":"118.425865","address":"縣金","city":"縣金"},
{"id":"879","place_id":"ChIJH4_iHsOkFDQRdjIMbXsj9-Q","title":"青發航運股份有限公司","lat":"24.4518165","lng":"118.4263469","address":"縣金金湖鎮中興路39號","city":"縣金"},
{"id":"880","place_id":"ChIJ0xHpL9WlFDQRcN9EC6hkX94","title":"下莊熊大燒烤鮮煮麵","lat":"24.452447","lng":"118.4260668","address":"縣金金湖鎮新生街31號","city":"縣金"},
{"id":"881","place_id":"ChIJ_R8_ufClFDQRcQCI0N63duw","title":"金門同伴動物醫院","lat":"24.4514993","lng":"118.4264106","address":"縣金金湖鎮光武路22號","city":"縣金"},
{"id":"882","place_id":"ChIJ86InA8OkFDQRwnLAw17ZTEs","title":"百樂門食堂","lat":"24.4525","lng":"118.426258","address":"縣金金湖鎮新生街32號","city":"縣金"},
{"id":"883","place_id":"ChIJ04blPcOkFDQRvGw-SqBVIlY","title":"昌陞營造有限公司","lat":"24.45251","lng":"118.4265764","address":"縣金金湖鎮新生街41號","city":"縣金"},
{"id":"884","place_id":"ChIJX-PHOV27FDQROyrbDrD_lck","title":"東美亭","lat":"24.49533","lng":"118.403808","address":"縣金","city":"縣金"},
{"id":"885","place_id":"ChIJiQ4ZPl27FDQRhavtFdbFOqc","title":"東美亭","lat":"24.495399","lng":"118.403198","address":"縣金","city":"縣金"},
{"id":"886","place_id":"ChIJM_PluM67FDQRxSrumtRbOSQ","title":"蜜麗居","lat":"24.4953763","lng":"118.4062327","address":"縣金金沙鎮沙美432號","city":"縣金"},
{"id":"887","place_id":"ChIJ86vOQ0SiFDQR5rzGUQM5bAY","title":"好宿民宿","lat":"24.423058","lng":"118.331389","address":"縣金金寧鄉林湖路556-1號","city":"縣金"},
{"id":"888","place_id":"ChIJ21GT9TiiFDQRS8fC2WzwjCA","title":"金門好宿","lat":"24.423132","lng":"118.331518","address":"縣金金門縣金寧鄉林湖路556之1號","city":"縣金"},
{"id":"889","place_id":"ChIJ2VD9gox2bjQRJ159S3A7frk","title":"鐵道大飯店-學校團體旅遊 商務住宿 長期","lat":"22.9977951","lng":"120.2113113","address":"台南北區成功路2號","city":"台南"},
{"id":"890","place_id":"ChIJURgFVYx2bjQRVpuO0ll9Si0","title":"Cafe Grazie 義式屋古拉爵 台","lat":"22.9965782","lng":"120.2142639","address":"台南東區前鋒路210號","city":"台南"},
{"id":"891","place_id":"ChIJ1ZIKf4t2bjQRYZ5YTorGH00","title":"台南大飯店","lat":"22.997204","lng":"120.210794","address":"台南中西區成功路1號","city":"台南"},
{"id":"892","place_id":"ChIJPclugYx2bjQRi3WzKR7EIeQ","title":"高玉商務飯店","lat":"22.9976769","lng":"120.2110629","address":"台南北區成功路2號","city":"台南"},
{"id":"893","place_id":"ChIJB-i_B412bjQR91MGqJm0FZk","title":"香格里拉台南遠東國際大飯店","lat":"22.9963445","lng":"120.2142396","address":"台南東區大學路西段89號","city":"台南"},
{"id":"894","place_id":"ChIJxRCBpYx2bjQRC4PhjOObSjY","title":"甜在心咖啡館","lat":"22.9989862","lng":"120.211369","address":"台南北區北忠街58巷12號","city":"台南"},
{"id":"895","place_id":"ChIJvbZj_ox2bjQRUj-vJ3VEuuk","title":"The Shop 品香坊- 香格里拉台南","lat":"22.9964127","lng":"120.2146015","address":"台南東區大學路西段89號","city":"台南"},
{"id":"896","place_id":"ChIJ7xCMr4x2bjQRxKBV7m_N014","title":"延齡堂-高粱酸白菜火鍋","lat":"22.9990711","lng":"120.2115439","address":"台南北區富北街50號","city":"台南"},
{"id":"897","place_id":"ChIJX8mjTYx2bjQR_GDuWl5YN_0","title":"上好機車出租行","lat":"22.9957215","lng":"120.2135175","address":"台南東區前鋒路176號","city":"台南"},
{"id":"898","place_id":"ChIJfaW9fox2bjQRlWWyqSDzfPU","title":"爭鮮迴轉壽司-台南店","lat":"22.9968906","lng":"120.211255","address":"台南中西區中山路209號","city":"台南"},
{"id":"899","place_id":"ChIJL1Me-ol2bjQRmAlHWf8lz24","title":"遠東百貨 台南成功店","lat":"22.9962661","lng":"120.2143467","address":"台南東區前鋒路210號","city":"台南"},
{"id":"900","place_id":"ChIJPyVjsYx2bjQRLo1DaoZpW2E","title":"雨露微亮 everiridescent","lat":"22.999305","lng":"120.211579","address":"台南No. 64號, 富北街, 北區","city":"台南"},
{"id":"901","place_id":"ChIJURgFVYx2bjQRS2igMO8PA0k","title":"遠東國際商業銀行ATM","lat":"22.99631699999999","lng":"120.2140049","address":"台南東區前鋒路210號","city":"台南"},
{"id":"902","place_id":"ChIJrVW5d4t2bjQReVJEg6n62W8","title":"摩斯漢堡","lat":"22.9974412","lng":"120.2099214","address":"台南中西區成功路21號","city":"台南"},
{"id":"903","place_id":"ChIJD7XA8Ix2bjQRdHAIm4NvVm4","title":"Tainan TrainSound Tr","lat":"22.9964556","lng":"120.2128518","address":"台南No. 4, 北門路二段, Tainan","city":"台南"},
{"id":"904","place_id":"ChIJT6oRdIx2bjQRjR2JJD4q-eU","title":"角樓洋房","lat":"22.9960469","lng":"120.2111858","address":"台南中西區北門路一段161巷36號","city":"台南"},
{"id":"905","place_id":"ChIJB9wdKfN2bjQRHf8hGJNovHs","title":"The Mezz 牛排龍蝦館 - 香格里","lat":"22.996552","lng":"120.214673","address":"台南東區大學路西段89號2樓","city":"台南"},
{"id":"906","place_id":"ChIJEyEbQsx3bjQR6-wWya80hxY","title":"遠東Cafe - 香格里拉台南遠東大飯店","lat":"22.996503","lng":"120.21427","address":"台南東區大學路西段89號10樓","city":"台南"},
{"id":"907","place_id":"ChIJbZpN7It2bjQRZp_bMsvCd7E","title":"金石堂書店 台南店","lat":"22.996053","lng":"120.2101839","address":"台南中西區中山路147號","city":"台南"},
{"id":"908","place_id":"ChIJ0yAIKe12bjQRnqEH4osC7uA","title":"國立成功大學","lat":"22.9988945","lng":"120.216945","address":"台南東區大學路1號","city":"台南"},
{"id":"909","place_id":"ChIJA2xpnZJ2bjQRYlRbUOlvA1s","title":"國立成功大學圖書館","lat":"22.9999425","lng":"120.2198602","address":"台南東區大學路1號","city":"台南"},
{"id":"910","place_id":"ChIJ9_HFTe12bjQR8XXX7DXeGNs","title":"成功大學通識中心","lat":"22.9987846","lng":"120.2172008","address":"台南東區大學路1號","city":"台南"},
{"id":"911","place_id":"ChIJW0QUSe12bjQR9D2_1FL9pyM","title":"鳳凰樹劇場","lat":"22.9988164","lng":"120.2178791","address":"台南東區大學路1號光復校區雲平大樓地下二樓國立成功大學","city":"台南"},
{"id":"912","place_id":"ChIJ77Z_4pJ2bjQR824lbWr2DqU","title":"日軍臺灣步兵第二聯隊營舍","lat":"22.9996542","lng":"120.2164005","address":"台南東區大學路1號","city":"台南"},
{"id":"913","place_id":"ChIJRchobe12bjQRcg436mhNtuo","title":"國立成功大學中國文學系","lat":"23.000334","lng":"120.2179843","address":"台南東區大學路1號","city":"台南"},
{"id":"914","place_id":"ChIJv9e6pPJ2bjQRylfdmK64Vzo","title":"國立成功大學大成館","lat":"22.9996659","lng":"120.2159912","address":"台南東區大學路1號","city":"台南"},
{"id":"915","place_id":"ChIJpwIprpJ2bjQRQi61CqcZJdo","title":"國立成功大學國際經營管理研究所","lat":"22.9980341","lng":"120.2173539","address":"台南東區勝利路294號","city":"台南"},
{"id":"916","place_id":"ChIJA8Fcl_J2bjQRq2u0GBY3__U","title":"國立成功大學榕園","lat":"23.0003294","lng":"120.2161599","address":"台南東區大學路1號成功大學光復校區","city":"台南"},
{"id":"917","place_id":"ChIJvUKis5J2bjQRea6m0NEVo28","title":"國立成功大學管理學院","lat":"22.9979029","lng":"120.2176671","address":"台南東區大學路1號","city":"台南"},
{"id":"918","place_id":"ChIJe061WY12bjQRShNXfxuqBko","title":"成大合唱團","lat":"22.9979269","lng":"120.2164701","address":"台南東區大學路1號","city":"台南"},
{"id":"919","place_id":"ChIJl5WdTo12bjQRvEPD6AdRIhU","title":"成功大学軍事訓練室","lat":"22.9985082","lng":"120.2156892","address":"台南禮賢樓, 號, No. 1, 大學路, 東區","city":"台南"},
{"id":"920","place_id":"ChIJ-61boO12bjQRIt0MQk6oVVc","title":"T-Bike 成大醫院站","lat":"23.0011126","lng":"120.2182439","address":"台南北區小東路35號","city":"台南"},
{"id":"921","place_id":"ChIJsdTqzpJ2bjQR_ZPO9WEM9yw","title":"成功大學理學院","lat":"22.9978287","lng":"120.2185556","address":"台南東區","city":"台南"},
{"id":"922","place_id":"ChIJj7v6KO12bjQR_EZNFdnD9fg","title":"國立成功大學數學系館","lat":"22.9986309","lng":"120.2193161","address":"台南東區勝利路294號","city":"台南"},
{"id":"923","place_id":"ChIJD47bnJJ2bjQRyCDPLcbT5YE","title":"成功大學郵局","lat":"22.9974552","lng":"120.2171298","address":"台南東區大學路1號","city":"台南"},
{"id":"924","place_id":"ChIJF-y9o5J2bjQRvoUBQEMnjfc","title":"成功大學郵局ATM","lat":"22.9973976","lng":"120.2171462","address":"台南東區大學路西段53號","city":"台南"},
{"id":"925","place_id":"ChIJaz-7uPJ2bjQRQHDrNuYB-3A","title":"禮賢樓 (國立成功大學藝術研究所)","lat":"22.99988829999999","lng":"120.2152589","address":"台南東區大學路1號","city":"台南"},
{"id":"926","place_id":"ChIJVVVVFe12bjQRT30V7qRJ6BE","title":"國立成功大學數學系","lat":"22.9986133","lng":"120.2194378","address":"台南東區大學路1號","city":"台南"},
{"id":"927","place_id":"ChIJ20ynGYt2bjQRgObH2toNfM0","title":"首相大飯店 Premier Hotel","lat":"22.9987028","lng":"120.2074806","address":"台南北區公園路128號","city":"台南"},
{"id":"928","place_id":"ChIJY08WKIt2bjQRmOxRGUuqPxw","title":"Panasonic","lat":"22.9997101","lng":"120.2077613","address":"台南北區公園路219號","city":"台南"},
{"id":"929","place_id":"ChIJG_EWoYp2bjQRSqX-LjdPtck","title":"上欣快餐","lat":"22.9999191","lng":"120.2053385","address":"台南北區忠義路三段59號","city":"台南"},
{"id":"930","place_id":"ChIJV7AD0fR2bjQRds1_naYDcD4","title":"公園口紅燒土魠魚焿","lat":"23.0007526","lng":"120.2084315","address":"台南北區公園路265號","city":"台南"},
{"id":"931","place_id":"ChIJpS9zWIl2bjQR8cJI0OWOUFU","title":"彼得兔溫馨小窩","lat":"22.9986341","lng":"120.205097","address":"台南12樓, No. 120號, 成功路, 北區","city":"台南"},
{"id":"932","place_id":"ChIJBYKvs4p2bjQRtZsCmDWFg4g","title":"無名豆花","lat":"23.000667","lng":"120.206055","address":"台南北區北忠街176號","city":"台南"},
{"id":"933","place_id":"ChIJf_iGlop2bjQRE8tKT1uYg-A","title":"開基玉皇宮","lat":"22.9998778","lng":"120.2069933","address":"台南北區佑民街111號","city":"台南"},
{"id":"934","place_id":"ChIJH-2ay4p2bjQRzmiDlLRPu5g","title":"連得堂煎餅","lat":"23.0004068","lng":"120.2066691","address":"台南北區崇安街54號","city":"台南"},
{"id":"935","place_id":"ChIJPVUF0fR2bjQR-qlBByrJIX4","title":"津屋","lat":"23.0007615","lng":"120.2084313","address":"台南中西區公園路259號","city":"台南"},
{"id":"936","place_id":"ChIJl4Q6IfV2bjQRnY5LsiERHdw","title":"兵工廠PUB","lat":"23.0014089","lng":"120.2077247","address":"台南北區公園南路82號","city":"台南"},
{"id":"937","place_id":"ChIJR1k1iIp2bjQRTd20p8ZZ7-M","title":"大觀音亭","lat":"22.9984954","lng":"120.206129","address":"台南北區成功路86號","city":"台南"},
{"id":"938","place_id":"ChIJ6ee9-Yp2bjQRvlisrG_HUzM","title":"Jia Inn","lat":"22.9982301","lng":"120.2074054","address":"台南11F, No, Tainan Area, No. 54, 成功路, North Dist","city":"台南"},
{"id":"939","place_id":"ChIJPciG5Yp2bjQRKLKPI1Lh74c","title":"惠幼小兒科診所","lat":"22.9987779","lng":"120.2072005","address":"台南北區公園路167號","city":"台南"},
{"id":"940","place_id":"ChIJ1dHaWPV2bjQRQGuR48_7buk","title":"開南食品公園店","lat":"23.0022396","lng":"120.2050084","address":"台南北區公園南路248號","city":"台南"},
{"id":"941","place_id":"ChIJMT-UzIp2bjQRmeE81sbYINY","title":"Zongye Old Street","lat":"23.0009377","lng":"120.2071313","address":"台南Taiwan","city":"台南"},
{"id":"942","place_id":"ChIJqTOx5iB0bjQR4ZJpC75CGPs","title":"青航海外旅行社有限公司","lat":"23.0014951","lng":"120.2064566","address":"台南東區仁東街37號","city":"台南"},
{"id":"943","place_id":"ChIJe4o00PR2bjQRMrIdsXcyCoA","title":"聖達旅行社","lat":"23.0007071","lng":"120.2084805","address":"台南北區公園路257號","city":"台南"},
{"id":"944","place_id":"ChIJEdT_Yop2bjQRz6YfOOucT7c","title":"枝仔冰城台南店","lat":"22.998121","lng":"120.206009","address":"台南中西區成功路177號","city":"台南"},
{"id":"945","place_id":"ChIJ4fRV0Ip2bjQRSOfFS9tRxZk","title":"新順發行(麥芽糖，冰糖，冬瓜糖)","lat":"23.0001477","lng":"120.2074912","address":"台南北區北忠街136號","city":"台南"},
{"id":"946","place_id":"ChIJHw5hnGN2bjQRg3J4tl0D7rk","title":"冰鄉","lat":"22.9942309","lng":"120.2002455","address":"台南中西區民生路一段160號","city":"台南"},
{"id":"947","place_id":"ChIJwcrlsWZ2bjQRuSR57DvjKOE","title":"阿松割包","lat":"22.9975643","lng":"120.1989031","address":"台南中西區國華街三段181號","city":"台南"},
{"id":"948","place_id":"ChIJje2QZmF2bjQRR6NbMsm6hTY","title":"大天后宮","lat":"22.9966464","lng":"120.2015605","address":"台南中西區永福路二段227巷18號","city":"台南"},
{"id":"949","place_id":"ChIJCzZbxWZ2bjQR6CUWOMHz1hI","title":"金得春捲","lat":"22.9976539","lng":"120.1990705","address":"台南中西區民族路三段19號","city":"台南"},
{"id":"950","place_id":"ChIJYydshWF2bjQRRXXfsH65j8s","title":"松村煙燻滷味","lat":"22.9966073","lng":"120.2028387","address":"台南中西區民族路二段319號","city":"台南"},
{"id":"951","place_id":"ChIJwe_HQGN2bjQRpvMjsprxuVg","title":"台南度小月担仔面","lat":"22.9971963","lng":"120.2019618","address":"台南中西區民族路二段216號","city":"台南"},
{"id":"952","place_id":"ChIJezCwC8p3bjQRDdtipPr_yZQ","title":"富盛號碗粿","lat":"22.9975871","lng":"120.1992042","address":"台南中西區民族路三段11號","city":"台南"},
{"id":"953","place_id":"ChIJoWlHiRF2bjQR5UtD9gZnRGA","title":"松稜.擔露駐在所","lat":"22.997251","lng":"120.2009351","address":"台南中西區民族路二段405號","city":"台南"},
{"id":"954","place_id":"ChIJkx1tsmZ2bjQRK5Rd4IkWvKI","title":"好味紅燒土魠魚羹","lat":"22.9975245","lng":"120.198996","address":"台南700, No. 186號, 國華街三段, 中西區","city":"台南"},
{"id":"955","place_id":"ChIJYyplFWF2bjQRoIi7p7oISNM","title":"來七桃旅店(赤崁樓)","lat":"22.9981829","lng":"120.200761","address":"台南中西區西門路二段372巷6號","city":"台南"},
{"id":"956","place_id":"ChIJ949JK2J2bjQRrk9IB5gwAG8","title":"裕成水果行","lat":"22.9940169","lng":"120.201006","address":"台南700, No. 122號, 民生路一段, 中西區","city":"台南"},
{"id":"957","place_id":"ChIJT2QFd2F2bjQRA5rFcZCirKM","title":"韓金婆婆豆腐酪 - 赤崁店","lat":"22.997369","lng":"120.202014","address":"台南中西區赤嵌街1號","city":"台南"},
{"id":"958","place_id":"ChIJr52tQGF2bjQR6s6o9VFFRsE","title":"阿輝炒鱔魚","lat":"22.9979306","lng":"120.2004384","address":"台南中西區西門路二段352號","city":"台南"},
{"id":"959","place_id":"ChIJGbkssGN2bjQRfni8zNB8zXs","title":"台南名世大飯店","lat":"22.9944264","lng":"120.2018619","address":"台南中西區永福路二段150之1號","city":"台南"},
{"id":"960","place_id":"ChIJCW1KM2J2bjQRTzRcbj-PJBk","title":"倫敦唐寧街十號","lat":"22.9952582","lng":"120.2022968","address":"台南中西區民權路二段180號","city":"台南"},
{"id":"961","place_id":"ChIJZfZad2F2bjQRnjbW5fnsKzE","title":"一手私藏世界紅茶 台南赤崁店\/茶飲加盟熱","lat":"22.9971751","lng":"120.2018721","address":"台南中西區民族路二段222號","city":"台南"},
{"id":"962","place_id":"ChIJnT2aXWR2bjQRv6k7-J2Lra0","title":"阿娟肉粽魯麵","lat":"22.9955556","lng":"120.1980556","address":"台南中西區國華街三段87號","city":"台南"},
{"id":"963","place_id":"ChIJW1BVGmR2bjQRew3gKsTi9JA","title":"水仙宮粽葉米糕","lat":"22.9965775","lng":"120.1984305","address":"台南中西區民權路三段44號","city":"台南"},
{"id":"964","place_id":"ChIJuf8vj2F2bjQRr9AQfADQ23s","title":"瑞益行","lat":"22.9964763","lng":"120.2030135","address":"台南中西區民族路二段303號","city":"台南"},
{"id":"965","place_id":"ChIJVRIQYWN2bjQR-2QQ2eiqajk","title":"哈利速食","lat":"22.9929591","lng":"120.1995524","address":"台南中西區中正路138巷8號","city":"台南"},
{"id":"966","place_id":"ChIJfwG47WR2bjQRWjXkJEMKvLw","title":"綣綣屋。手作霜淇淋-台南國華總店","lat":"22.9938917","lng":"120.1978139","address":"台南中西區國華街三段26號","city":"台南"},
{"id":"967","place_id":"ChIJhwhoW2N2bjQRsQRMoD4STa4","title":"雙全紅茶","lat":"22.9922921","lng":"120.1997279","address":"台南中西區中正路131巷2號","city":"台南"},
{"id":"968","place_id":"ChIJd4-t8ox2bjQR3VsxHRBKnHk","title":"賣飲料 my beverages","lat":"22.994314","lng":"120.2015056","address":"台南中西區永福路二段142-1號","city":"台南"},
{"id":"969","place_id":"ChIJp_cxBGN2bjQRPNGHMjXqMQQ","title":"蘿曼菲婚紗攝影 ‧ 手工禮服出租","lat":"22.9938703","lng":"120.2013065","address":"台南中西區民生路一段114號","city":"台南"},
{"id":"970","place_id":"ChIJ2VORzmN2bjQRBTGamcfvGgg","title":"全美戲院","lat":"22.9951669","lng":"120.2015038","address":"台南中西區永福路二段187號","city":"台南"},
{"id":"971","place_id":"ChIJrfEMfWF2bjQRKt9SnJ9mm6o","title":"兩角銀古早味冬瓜茶","lat":"22.9965849","lng":"120.2011357","address":"台南中西區永福路二段227巷51號","city":"台南"},
{"id":"972","place_id":"ChIJEbldqGN2bjQRU4u0lduMxpk","title":"台南婚紗攝影凱驛莎時尚婚紗","lat":"22.99391199999999","lng":"120.201541","address":"台南中西區民生路一段104號","city":"台南"},
{"id":"973","place_id":"ChIJ61CtG2R2bjQRGvNz1OIQVfk","title":"黃家鱔魚意麵","lat":"22.996477","lng":"120.198469","address":"台南中西區民權路三段46號","city":"台南"},
{"id":"974","place_id":"ChIJ27himmN2bjQRKim7VOIVVYk","title":"錦町燒餃「原正義餃子」","lat":"22.9944427","lng":"120.2001251","address":"台南12號, No. 10號, 新美街, 中西區","city":"台南"},
{"id":"975","place_id":"ChIJoYY-W2N2bjQRL-cmd9pDwCs","title":"末廣町女僕咖啡館","lat":"22.9944454","lng":"120.2013191","address":"台南中西區永福路二段141號","city":"台南"},
{"id":"976","place_id":"ChIJqfAvaGJ2bjQR678EbZXaqfE","title":"阿霞飯店","lat":"22.9940875","lng":"120.2036807","address":"台南中西區忠義路二段84巷7號","city":"台南"},
{"id":"977","place_id":"ChIJr7pwW2J2bjQROWhA1Lydw2A","title":"陶板屋 台南忠義店","lat":"22.9914494","lng":"120.2028645","address":"台南中西區忠義路二段26號","city":"台南"},
{"id":"978","place_id":"ChIJq7vR14l2bjQRhmlNkSlt5vk","title":"原台南測候所","lat":"22.9936765","lng":"120.2050336","address":"台南中西區公園路21號","city":"台南"},
{"id":"979","place_id":"ChIJKQvNlYl2bjQRGZCMHUi--u4","title":"甘單咖啡館","lat":"22.9941454","lng":"120.2067724","address":"台南中西區民權路二段4巷13號","city":"台南"},
{"id":"980","place_id":"ChIJH7VaJIh2bjQRiHVgp9iArns","title":"芳苑冰棒","lat":"22.99185559999999","lng":"120.2055011","address":"台南中西區開山路6號","city":"台南"},
{"id":"981","place_id":"ChIJgcp5wol2bjQRdslnxYwK30Y","title":"吳園藝文中心","lat":"22.9943733","lng":"120.2059555","address":"台南中西區民權路二段30號","city":"台南"},
{"id":"982","place_id":"ChIJcfdsmWJ2bjQRSb4_CGnFR0E","title":"國立臺灣文學館 (原臺南州廳)","lat":"22.9919771","lng":"120.2044915","address":"台南中西區中正路1號","city":"台南"},
{"id":"983","place_id":"ChIJVfASdWJ2bjQRvBZf3GL0HOE","title":"再發號百年肉粽","lat":"22.9943153","lng":"120.205035","address":"台南中西區民權路二段71號","city":"台南"},
{"id":"984","place_id":"ChIJz13cRGJ2bjQRVoL9IU_Ov88","title":"福樂屋","lat":"22.9941578","lng":"120.2031579","address":"台南中西區忠義路二段113號","city":"台南"},
{"id":"985","place_id":"ChIJS3qmjGJ2bjQR8xdGp14CEhw","title":"老店 甘本堂蛋糕烘焙坊","lat":"22.992945","lng":"120.203721","address":"台南中西區民生路一段35號號","city":"台南"},
{"id":"986","place_id":"ChIJzzVifWJ2bjQR3c2XguKQqbo","title":"台南莎士比亞婚紗攝影","lat":"22.9929893","lng":"120.2043134","address":"台南中西區民生路一段12號","city":"台南"},
{"id":"987","place_id":"ChIJwe_HQGN2bjQRq4DHLs6aj48","title":"度小月原始店Du Hsiao Yueh","lat":"22.99231","lng":"120.2037167","address":"台南中西區中正路16號","city":"台南"},
{"id":"988","place_id":"ChIJl6FzYmJ2bjQRkzoYWDFIqDk","title":"台南婚紗-TOUCH攝影-手工禮服出租","lat":"22.993241","lng":"120.20413","address":"台南No. 24號, 民生路一段, 中西區","city":"台南"},
{"id":"989","place_id":"ChIJ581p22J2bjQRc1y2mXfkLok","title":"富華大飯店","lat":"22.9916363","lng":"120.2029449","address":"台南中西區忠義路二段28號","city":"台南"},
{"id":"990","place_id":"ChIJXzyVuIl2bjQRBcj1hhJsJ2s","title":"合成帆布行","lat":"22.9935868","lng":"120.2062661","address":"台南中西區中山路45號","city":"台南"},
{"id":"991","place_id":"ChIJ__2iLIh2bjQRqFW1-43d9GM","title":"魔髮部屋More Fun House -","lat":"22.9930711","lng":"120.205497","address":"台南中西區中山路9號1~5F","city":"台南"},
{"id":"992","place_id":"ChIJc6JGFGJ2bjQRYxZBVvVHV_A","title":"阿美飯店","lat":"22.9947456","lng":"120.2041059","address":"台南中西區民權路二段98號","city":"台南"},
{"id":"993","place_id":"ChIJz71WkJZ3bjQRvwoXpTnmFmQ","title":"渝苑川味小吃店","lat":"22.99424299999999","lng":"120.2032646","address":"台南中西區忠義路二段117號","city":"台南"},
{"id":"994","place_id":"ChIJYxYUOIh2bjQRMvOPxPUGvtE","title":"祿記包子","lat":"22.9919136","lng":"120.2065232","address":"台南中西區開山路3巷27號","city":"台南"},
{"id":"995","place_id":"ChIJu6cWapJ2bjQRsVBfC4YuLsE","title":"勝利早點","lat":"22.9946783","lng":"120.2179256","address":"台南東區勝利路119號","city":"台南"},
{"id":"996","place_id":"ChIJESJv8JJ2bjQR-d5JYH9870I","title":"成大會館","lat":"22.9959021","lng":"120.2187063","address":"台南東區大學路2號","city":"台南"},
{"id":"997","place_id":"ChIJE1XuapJ2bjQRRHCH0BxFnXg","title":"台南-CHADOR","lat":"22.9945124","lng":"120.2179444","address":"台南東區勝利路115-1號","city":"台南"},
{"id":"998","place_id":"ChIJL4pcffBzbjQRFTMAaySeiYw","title":"陶板屋 台南勝利店","lat":"22.9957892","lng":"120.2185945","address":"台南東區勝利路118號2樓","city":"台南"},
{"id":"999","place_id":"ChIJI9UQqJp2bjQRl0vOf-jSBf4","title":"紅樓小館","lat":"22.9958418","lng":"120.2170321","address":"台南東區勝利路165巷11號","city":"台南"},
{"id":"1000","place_id":"ChIJL4pcffBzbjQRGvRYI_O6q_Y","title":"21風味館 台南成大門市","lat":"22.9957758","lng":"120.2182787","address":"台南東區勝利路118號","city":"台南"},
{"id":"1001","place_id":"ChIJeQQqjJJ2bjQRhZLM-FIHGF0","title":"Jamys潛艇堡專賣店","lat":"22.9962278","lng":"120.217891","address":"台南東區大學路西段9號","city":"台南"},
{"id":"1002","place_id":"ChIJ3UbX7412bjQR1jcrVpPy03c","title":"國立臺南第一高級中學","lat":"22.9942111","lng":"120.2158889","address":"台南東區民族路一段1號","city":"台南"},
{"id":"1003","place_id":"ChIJT4uXiZJ2bjQRkOpHA3VhsZY","title":"小妞炒飯","lat":"22.995893","lng":"120.2178727","address":"台南東區勝利路171巷5號","city":"台南"},
{"id":"1004","place_id":"ChIJLe3bFZJ2bjQR5hjUVCx0lmI","title":"DAHON","lat":"22.99410959999999","lng":"120.2178788","address":"台南東區勝利路103號","city":"台南"},
{"id":"1005","place_id":"ChIJA2xpnZJ2bjQRbOkCD2qgHqE","title":"國立成功大學博物館","lat":"22.9966473","lng":"120.2195854","address":"台南東區大學路1號","city":"台南"},
{"id":"1006","place_id":"ChIJqT-FJ7B2bjQRC5WuvYx6RZs","title":"馬可先生健康烘焙勝利店","lat":"22.9959633","lng":"120.2179276","address":"台南東區勝利路175號","city":"台南"},
{"id":"1007","place_id":"ChIJB4e3e5J2bjQRzSB6K_cIqcw","title":"大夯牛排館Da-hang Steak h","lat":"22.995404","lng":"120.217112","address":"台南東區育樂街35-28號","city":"台南"},
{"id":"1008","place_id":"ChIJm6pEapJ2bjQRwhhfj33DbCs","title":"Subway","lat":"22.9945635","lng":"120.2179444","address":"台南東區勝利路117號","city":"台南"},
{"id":"1009","place_id":"ChIJdUG08pJ2bjQRMZLc2urxMgk","title":"哈果汁-果汁專賣店","lat":"22.9962325","lng":"120.2179556","address":"台南中西區大學路西段3號","city":"台南"},
{"id":"1010","place_id":"ChIJIUgxfJJ2bjQRoghlFlkhelg","title":"成大綠豆湯","lat":"22.9962588","lng":"120.217077","address":"台南東區育樂街46巷12號","city":"台南"},
{"id":"1011","place_id":"ChIJa9AUj5J2bjQRIAeTB5lASTg","title":"康橋外語中心 大學本校","lat":"22.9962588","lng":"120.2176977","address":"台南東區大學路西段15號","city":"台南"},
{"id":"1012","place_id":"ChIJiSzOfpJ2bjQROmU6aBhTXIw","title":"123精緻炒飯","lat":"22.9955335","lng":"120.217113","address":"台南東區育樂街40號","city":"台南"},
{"id":"1013","place_id":"ChIJBaLk7OZHaDQRI9Zd-PQdlO4","title":"誠和 證件快照機 水啦!","lat":"22.9959131","lng":"120.218392","address":"台南勝利路118號異人館 70146台南市东区, 70146 勝利路118號1樓台南成大商場, 东区","city":"台南"},
{"id":"1014","place_id":"ChIJ5WoL6cF2bjQRZlLFhZGwGeg","title":"極鮮火鍋","lat":"23.0001795","lng":"120.229309","address":"台南北區東興路二段6號","city":"台南"},
{"id":"1015","place_id":"ChIJdWmdp8F2bjQRSG3XafiBhLs","title":"Panasonic","lat":"22.9992052","lng":"120.2310503","address":"台南北區小東路329號","city":"台南"},
{"id":"1016","place_id":"ChIJsfBoa-p2bjQRZFytlgmMU68","title":"巴人川味 重慶江湖菜","lat":"23.0003554","lng":"120.2268538","address":"台南北區小東路153號","city":"台南"},
{"id":"1017","place_id":"ChIJEUFGe-p2bjQRivTo5D_n2Ic","title":"阿公阿婆蛋餅","lat":"22.9994245","lng":"120.2277414","address":"台南東區小東路198巷10號","city":"台南"},
{"id":"1018","place_id":"ChIJuZcC2MN2bjQRmooGjd7dz-k","title":"角色火鍋","lat":"23.0006764","lng":"120.2309975","address":"台南永康區勝利街4號","city":"台南"},
{"id":"1019","place_id":"ChIJCeNgaOp2bjQRokTYpm3oyeU","title":"一點刈包","lat":"22.9999337","lng":"120.2269608","address":"台南東區小東路156號","city":"台南"},
{"id":"1020","place_id":"ChIJmVuZMsB2bjQRxybW4xAltY0","title":"山西刀削麵","lat":"22.9986357","lng":"120.2290129","address":"台南東區東和路42號","city":"台南"},
{"id":"1021","place_id":"ChIJkRSAp8F2bjQRAq-OwBNRLp8","title":"安安(房地借貸)當舖","lat":"22.9991837","lng":"120.2311055","address":"台南北區小東路331號","city":"台南"},
{"id":"1022","place_id":"ChIJxVRTqcF2bjQR3j3mLs5FfXQ","title":"7-ELEVEN 小東門市","lat":"22.9988538","lng":"120.230714","address":"台南東區小東路256號","city":"台南"},
{"id":"1023","place_id":"ChIJ9Wmjt8F2bjQRav1HTIYfU-U","title":"信美太陽能科技企業行","lat":"22.9991336","lng":"120.2297678","address":"台南東區小東路248-7號","city":"台南"},
{"id":"1024","place_id":"ChIJh9X_1sF2bjQRC1q1bTk0nlg","title":"吃飽飽美食厨房","lat":"22.9993876","lng":"120.2283828","address":"台南東區光明街13-1號","city":"台南"},
{"id":"1025","place_id":"ChIJpUZaucF2bjQRtaOppIgjdfI","title":"銘品牙醫診所","lat":"22.9995","lng":"120.2299669","address":"台南北區小東路295號","city":"台南"},
{"id":"1026","place_id":"ChIJL1SW3MF2bjQRkFBZCCVONP8","title":"衛民中醫診所","lat":"22.9998439","lng":"120.228814","address":"台南北區小東路269號","city":"台南"},
{"id":"1027","place_id":"ChIJfSYQz8F2bjQR6o2RwsLK7zk","title":"南都廣播電台股份有限公司","lat":"22.999268","lng":"120.229144","address":"台南東區小東路246號之1","city":"台南"},
{"id":"1028","place_id":"ChIJFXlgpMF2bjQRVqxRjrWX5O8","title":"林家炒飯","lat":"22.9993238","lng":"120.2301737","address":"台南北區小東路305號之2號","city":"台南"},
{"id":"1029","place_id":"ChIJ_V63HJZ2bjQR1tv-_KKVOQM","title":"88嫩仙草-光明店","lat":"22.9977313","lng":"120.2285314","address":"台南東區光明街147-4號","city":"台南"},
{"id":"1030","place_id":"ChIJI68Kp8F2bjQRWG62ZukpE00","title":"華昇診所","lat":"22.9992127","lng":"120.2310313","address":"台南北區小東路327號","city":"台南"},
{"id":"1031","place_id":"ChIJx9KVFZZ2bjQRlOQAI7eVCw8","title":"得魚禾森文化事業","lat":"22.9995082","lng":"120.2307753","address":"台南北區小東路307巷9號","city":"台南"},
{"id":"1032","place_id":"ChIJhcbmu8F2bjQRMrweKVmfEHM","title":"台南成大特許加盟店","lat":"22.9994677","lng":"120.2300227","address":"台南北區小東路297-1號","city":"台南"},
{"id":"1033","place_id":"ChIJUUmjCGd2bjQRdMKGKrBic_k","title":"貓門咖啡 Cafe Moment","lat":"23.0082376","lng":"120.2252345","address":"台南北區南園街87號","city":"台南"},
{"id":"1034","place_id":"ChIJy3FNy-52bjQRmNhhTi930xA","title":"添福麵館","lat":"23.0044128","lng":"120.2223916","address":"台南北區長榮路四段73號","city":"台南"},
{"id":"1035","place_id":"ChIJzQkFNOl2bjQR0zU1VMSNhzU","title":"阿元麵店","lat":"23.0043765","lng":"120.2226953","address":"台南北區長榮路四段60號","city":"台南"},
{"id":"1036","place_id":"ChIJ_VdTI-l2bjQRWk_f_vIsbYs","title":"123冰城","lat":"23.0046576","lng":"120.2232036","address":"台南北區開元路212巷124弄28號","city":"台南"},
{"id":"1037","place_id":"ChIJPQTwY-h2bjQRM81gB-lVr7s","title":"南園街鍋貼","lat":"23.0065564","lng":"120.2256254","address":"台南北區南園街160號","city":"台南"},
{"id":"1038","place_id":"ChIJ2TXbb-l2bjQRmEXvaykz0bI","title":"如御樓川菜海鮮餐廳","lat":"23.0035193","lng":"120.2245673","address":"台南北區林森路三段153-30號","city":"台南"},
{"id":"1039","place_id":"ChIJmbqohnR2bjQRB6NgUWTl4ek","title":"采醫絢麗診所(已搬遷)","lat":"23.007461","lng":"120.2244082","address":"台南北區林森路三段268號","city":"台南"},
{"id":"1040","place_id":"ChIJBQ350ed2bjQRU8WKDanuUtw","title":"萊爾富便利商店 台南南園店","lat":"23.0077296","lng":"120.2255529","address":"台南北區南園街103號","city":"台南"},
{"id":"1041","place_id":"ChIJp2ZFY-l2bjQRdMRSdtYhRrI","title":"采醫真麗診所","lat":"23.007461","lng":"120.2244082","address":"台南北區林森路三段268號","city":"台南"},
{"id":"1042","place_id":"ChIJ02TfcOl2bjQRsxhyFaJyT70","title":"豐英水中攝影機材 台南店","lat":"23.0042913","lng":"120.2249863","address":"台南北區林森路三段134號","city":"台南"},
{"id":"1043","place_id":"ChIJWRzn7-h2bjQRczbziktkulU","title":"潮代診所","lat":"23.0057494","lng":"120.2245408","address":"台南北區林森路三段165號2樓","city":"台南"},
{"id":"1044","place_id":"ChIJwRSPlOh2bjQRnjaC7c5Puno","title":"台南市北區華興、振興里聯合活動中心管理委","lat":"23.0063778","lng":"120.2243425","address":"台南北區林森路三段181號","city":"台南"},
{"id":"1045","place_id":"ChIJwRSPlOh2bjQRxrS-txDANZM","title":"台南市北區華興．振興里聯合里里辦公處","lat":"23.0066086","lng":"120.2241747","address":"台南北區林森路三段181號","city":"台南"},
{"id":"1046","place_id":"ChIJVVMjjeh2bjQRMQ5-DNzIEc0","title":"朵立韓國精品館","lat":"23.006415","lng":"120.2247551","address":"台南北區林森路三段222號號 5 樓 之 2","city":"台南"},
{"id":"1047","place_id":"ChIJI0em9eh2bjQRVyO738U7Zo4","title":"成發電器冷氣行","lat":"23.006075","lng":"120.225179","address":"台南北區開南街","city":"台南"},
{"id":"1048","place_id":"ChIJR0TdKul2bjQRgqv39hQiRSc","title":"真耶穌教會開元教會","lat":"23.0053448","lng":"120.2225091","address":"台南北區長榮路四段100號","city":"台南"},
{"id":"1049","place_id":"ChIJCTee1O52bjQRmlVgsdulBUc","title":"一心經濟快餐","lat":"23.005183","lng":"120.222319","address":"台南北區長榮路四段99號","city":"台南"},
{"id":"1050","place_id":"ChIJaSaQLel2bjQRsuG8FtWZev4","title":"Saya Hair Salon","lat":"23.0048152","lng":"120.2226561","address":"台南北區長榮路四段82號","city":"台南"},
{"id":"1051","place_id":"ChIJedp4Lel2bjQRdmKOoZCo_fA","title":"YAMAHA YSP 尚宏機車(台南北區","lat":"23.0047358","lng":"120.2226981","address":"台南北區長榮路四段80號","city":"台南"},
{"id":"1052","place_id":"ChIJ3UVJw_Z2bjQRLDIKJpKmJzk","title":"萬香土產紅燒羊肉爐 (必吃在地美食、人氣","lat":"23.0074236","lng":"120.2097111","address":"台南北區公園路429號","city":"台南"},
{"id":"1053","place_id":"ChIJNZJEZfF2bjQRDWpzm4tBYSg","title":"教育部永續校園_台南市國立台南第二高級中","lat":"23.0055481","lng":"120.212765","address":"台南北區北門路二段125號","city":"台南"},
{"id":"1054","place_id":"ChIJq8gi6_N2bjQRl9tP4fxU5nI","title":"台南市立圖書館","lat":"23.0038507","lng":"120.212192","address":"台南北區公園北路3號","city":"台南"},
{"id":"1055","place_id":"ChIJY8dGjfN2bjQRtDCkC0cyp-A","title":"台南市兒童科學館","lat":"23.003628","lng":"120.211445","address":"台南北區公園北路5號","city":"台南"},
{"id":"1056","place_id":"ChIJcaCOofZ2bjQRGHbO4VI0ntg","title":"弋達數碼設計工作室","lat":"23.005817","lng":"120.209512","address":"台南北區西門路四段16巷31弄","city":"台南"},
{"id":"1057","place_id":"ChIJyfMKr_Z2bjQRn4EK388sn28","title":"仙妮蕾德(御健公園店)","lat":"23.0058561","lng":"120.2102537","address":"台南北區公園路375-3號","city":"台南"},
{"id":"1058","place_id":"ChIJK8RsuvZ2bjQRw45H01cBRp8","title":"奇品水族","lat":"23.0059673","lng":"120.2102074","address":"台南北區公園路375-7號","city":"台南"},
{"id":"1059","place_id":"ChIJxwnfEfR2bjQRD2niidrBb_w","title":"杏安外科診所","lat":"23.0045837","lng":"120.2099917","address":"台南北區公園北路143號","city":"台南"},
{"id":"1060","place_id":"ChIJFUSZyPZ2bjQRc0OY6OmoHIw","title":"信心藥局","lat":"23.006948","lng":"120.2101859","address":"台南北區公園路546號","city":"台南"},
{"id":"1061","place_id":"ChIJBX2CrvZ2bjQRhGXrFSUGe_0","title":"漾水喬造型美學工作室","lat":"23.0057741","lng":"120.210518","address":"台南號, No. 458, 公園路, 北區","city":"台南"},
{"id":"1062","place_id":"ChIJw_8Nr_Z2bjQRZ8ukFZ7oyUk","title":"文林補習班","lat":"23.0058813","lng":"120.2102334","address":"台南北區公園路375-6號","city":"台南"},
{"id":"1063","place_id":"ChIJl_MNr_Z2bjQRF4pYEsgLZwk","title":"蔡旻倩皮膚科診所","lat":"23.0058172","lng":"120.2102675","address":"台南北區公園路375-2號","city":"台南"},
{"id":"1064","place_id":"ChIJla5suvZ2bjQRtZ223ZQsAzQ","title":"Eの時代手機通訊行","lat":"23.0060362","lng":"120.2101583","address":"台南北區公園路375-9號","city":"台南"},
{"id":"1065","place_id":"ChIJ35pSrvZ2bjQRV4MAj_pfgps","title":"王恭亮醫痛中心","lat":"23.0057224","lng":"120.2102908","address":"台南號, No. 375, 公園路, 北區","city":"台南"},
{"id":"1066","place_id":"ChIJ6VoAt_Z2bjQRBtydLrTVJPA","title":"台灣彩券","lat":"23.006508","lng":"120.210331","address":"台南北區公園路518號","city":"台南"},
{"id":"1067","place_id":"ChIJaeCSHwR3bjQRjC5GXw-x6HA","title":"皇嘉車業","lat":"23.0054241","lng":"120.210384","address":"台南北區公園路359號","city":"台南"},
{"id":"1068","place_id":"ChIJSbCuufZ2bjQRNATOrNFjvao","title":"SYM三陽機車(佳興機車行)","lat":"23.0065606","lng":"120.2100032","address":"台南北區公園路387號","city":"台南"},
{"id":"1069","place_id":"ChIJQ9GOuPZ2bjQR9G3XAFSf1pU","title":"富祥車業 FuXiang Motorcy","lat":"23.006709","lng":"120.209954","address":"台南北區公園路395號","city":"台南"},
{"id":"1070","place_id":"ChIJSRfXV_F2bjQR9nXiTs-ByGI","title":"社團法人中華民國台灣黏多醣症協會","lat":"23.0051323","lng":"120.2113805","address":"台南北區公園北路78巷22號","city":"台南"},
{"id":"1071","place_id":"ChIJqctagGZ2bjQRGlAjSFrC5hE","title":"神農街","lat":"22.9975171","lng":"120.1964949","address":"台南中西區神農街","city":"台南"},
{"id":"1072","place_id":"ChIJI8lVn2V2bjQRzO5Gc58aJ4Q","title":"富得來大飯店","lat":"22.99539","lng":"120.19509","address":"台南中西區康樂街243號","city":"台南"},
{"id":"1073","place_id":"ChIJVQedNGR2bjQRej5f77fcQuc","title":"福憩背包客棧-和平館 Fuqi Host","lat":"22.9964644","lng":"120.1965763","address":"台南中西區和平街91號","city":"台南"},
{"id":"1074","place_id":"ChIJFcYijGZ2bjQR2ZBm1s7KeBY","title":"阿江鱔魚意麵","lat":"22.99836509999999","lng":"120.1969598","address":"台南中西區民族路三段89號","city":"台南"},
{"id":"1075","place_id":"ChIJGUYdUmR2bjQRDZnA3JwkISw","title":"莊子土豆仁湯","lat":"22.9953199","lng":"120.1967896","address":"台南中西區民生路二段86號","city":"台南"},
{"id":"1076","place_id":"ChIJyTHXIYp2bjQRdBMdpX437c0","title":"蘇家鍋燒意麵","lat":"22.998569","lng":"120.1950279","address":"台南中西區金華路四段102號","city":"台南"},
{"id":"1077","place_id":"ChIJX4RJumV2bjQRRYcEl0ce4VU","title":"一緒二咖啡","lat":"22.995919","lng":"120.195575","address":"台南中西區康樂街160號","city":"台南"},
{"id":"1078","place_id":"ChIJX19ECWZ2bjQRtfATHDjVN50","title":"龍興冰品店","lat":"22.9981584","lng":"120.1946358","address":"台南中西區金華路四段39號","city":"台南"},
{"id":"1079","place_id":"ChIJF2tEkGZ2bjQRktR-V6R6kBI","title":"有方公寓 Your Fun Apartm","lat":"22.9981111","lng":"120.1972925","address":"台南中西區海安路二段269巷9號","city":"台南"},
{"id":"1080","place_id":"ChIJxcimEmZ2bjQRMvkpLV21FAU","title":"戽斗米糕","lat":"22.998508","lng":"120.194944","address":"台南中西區金華路四段98號","city":"台南"},
{"id":"1081","place_id":"ChIJa7rK12V2bjQRfUFR7ffOkvQ","title":"三山食堂","lat":"22.9975401","lng":"120.195908","address":"台南中西區民權路三段162號","city":"台南"},
{"id":"1082","place_id":"ChIJpXKlDmZ2bjQRNYCYj8scZqY","title":"(鄭)現宰土產","lat":"22.9984851","lng":"120.194696","address":"台南中西區金華路四段47號","city":"台南"},
{"id":"1083","place_id":"ChIJ84-cHmR2bjQR7tj5mNUzRPM","title":"麵條王海產麵","lat":"22.9968329","lng":"120.1983335","address":"台南中西區神農街6號","city":"台南"},
{"id":"1084","place_id":"ChIJm1oBrmV2bjQRE_urbslQovw","title":"吾亦私餐廳","lat":"22.9955853","lng":"120.1960847","address":"台南中西區民生路二段120號","city":"台南"},
{"id":"1085","place_id":"ChIJV3ZWBmZ2bjQRW4RUzNnPY18","title":"木‧十八","lat":"22.99813649999999","lng":"120.1943054","address":"台南Taiwan","city":"台南"},
{"id":"1086","place_id":"ChIJbT3zF2R2bjQRPRO5EA2qWb0","title":"Tainan BiBi 民宿","lat":"22.99648699999999","lng":"120.19798","address":"台南中西區民權路三段59號2-4樓","city":"台南"},
{"id":"1087","place_id":"ChIJVfAyY2Z2bjQRt5o2NN5mhdk","title":"See Love B&B","lat":"22.9982188","lng":"120.1962603","address":"台南No. 321, 康樂街, Tainan","city":"台南"},
{"id":"1088","place_id":"ChIJOwhpYmZ2bjQR9O1IbVc0X4s","title":"康樂街牛肉湯","lat":"22.998317","lng":"120.1962631","address":"台南中西區康樂街325號700 號","city":"台南"},
{"id":"1089","place_id":"ChIJZ1Zt6WR2bjQRjVZEVRzkFoU","title":"葉家小卷米粉","lat":"22.9910754","lng":"120.1969595","address":"台南中西區國華街二段142號","city":"台南"},
{"id":"1090","place_id":"ChIJa2yIQmZ2bjQR2f9r1KY-b-8","title":"阿龍香腸熟肉","lat":"22.9902391","lng":"120.1968521","address":"台南中西區保安路34號","city":"台南"},
{"id":"1091","place_id":"ChIJh7sELXt2bjQR1P1sd_eWJKk","title":"甜菓冰舖 Osmooth","lat":"22.9918633","lng":"120.1969337","address":"台南中西區友愛街225號","city":"台南"},
{"id":"1092","place_id":"ChIJdXw5bXt2bjQRWZJlJWrudzc","title":"阿堂鹹粥","lat":"22.9899117","lng":"120.1979533","address":"台南中西區西門路一段728號","city":"台南"},
{"id":"1093","place_id":"ChIJTUDx43p2bjQR7Sms7Ecs97U","title":"阿明豬心冬粉","lat":"22.9904692","lng":"120.1961192","address":"台南中西區保安路72號","city":"台南"},
{"id":"1094","place_id":"ChIJOQZDJnt2bjQRvmeMoNVn12E","title":"銀波布丁","lat":"22.9901011","lng":"120.1965951","address":"台南中區國華街二段81巷2號自由女神扭蛋機旁","city":"台南"},
{"id":"1095","place_id":"ChIJgwzvG3t2bjQRdIXn2mEiwuQ","title":"阿娟咖哩飯鴨肉羹","lat":"22.9902342","lng":"120.1968217","address":"台南中西區保安路36號","city":"台南"},
{"id":"1096","place_id":"ChIJKXEHGnt2bjQRoVIIZZ3UzPQ","title":"保安路米糕","lat":"22.9902952","lng":"120.197193","address":"台南中西區保安路16號","city":"台南"},
{"id":"1097","place_id":"ChIJTZfqMHt2bjQRj3n_vLB6szc","title":"國光大飯店","lat":"22.9914286","lng":"120.197597","address":"台南中西區尊王路18號","city":"台南"},
{"id":"1098","place_id":"ChIJT8J9TWV2bjQRQyhXcaFz3UM","title":"石頭鄉燜烤香味玉米","lat":"22.9905724","lng":"120.1952288","address":"台南中西區保安路98號","city":"台南"},
{"id":"1099","place_id":"ChIJZa46XXt2bjQRdXckvkM7FHc","title":"饕公麻辣燙","lat":"22.9903833","lng":"120.1986557","address":"台南中西區府前路一段322號","city":"台南"},
{"id":"1100","place_id":"ChIJ86JVKWV2bjQRF0XCRai_Z3k","title":"全量正古早味紅茶店","lat":"22.9909524","lng":"120.1958977","address":"台南中西區府前路二段80號","city":"台南"},
{"id":"1101","place_id":"ChIJxS-IQnp2bjQRMNnOsP0ijkg","title":"矮仔成蝦仁飯","lat":"22.9889795","lng":"120.1952292","address":"台南中西區海安路一段66號","city":"台南"},
{"id":"1102","place_id":"ChIJM-GE8np2bjQRsTnfVRNIlkY","title":"集品蝦仁飯","lat":"22.9902222","lng":"120.1950917","address":"台南中西區海安路一段107號","city":"台南"},
{"id":"1103","place_id":"ChIJ9X1wvmR2bjQRsqhUCAqPWhI","title":"赤崁棺材板","lat":"22.9923802","lng":"120.1961384","address":"台南中西區中正路康樂市場180號","city":"台南"},
{"id":"1104","place_id":"ChIJP899Tnp2bjQRHj_HoJAiqG8","title":"你我他之家","lat":"22.9886701","lng":"120.1960476","address":"台南中西區西門路一段703巷26號","city":"台南"},
{"id":"1105","place_id":"ChIJKWslGnt2bjQR8yJT0zBLAdA","title":"疆疆串燒烤肉專賣店","lat":"22.9902765","lng":"120.1969669","address":"台南中西區保安路26.28號","city":"台南"},
{"id":"1106","place_id":"ChIJM_smDXt2bjQRIfnzNWcMb6M","title":"麻豆助碗粿","lat":"22.9897119","lng":"120.1977524","address":"台南中西區西門路一段704號","city":"台南"},
{"id":"1107","place_id":"ChIJm43EMnt2bjQRuhYEK8JxrOY","title":"緣味東山鴨頭","lat":"22.9918815","lng":"120.1973372","address":"台南中西區友愛街207號","city":"台南"},
{"id":"1108","place_id":"ChIJ_fJ1-Jl2bjQR90EziYY1w9E","title":"巴東泰式料理Badom Thailand","lat":"22.989833","lng":"120.220032","address":"台南東區長榮路二段47號","city":"台南"},
{"id":"1109","place_id":"ChIJmQX4lJF2bjQRzjQt9ZyRAuY","title":"歐納牛排館","lat":"22.991667","lng":"120.218271","address":"台南東區勝利路52巷1之5號","city":"台南"},
{"id":"1110","place_id":"ChIJs3SPkZF2bjQRcMOkqrkYpkE","title":"橋上看書","lat":"22.9921011","lng":"120.218488","address":"台南東區勝利路52巷13號","city":"台南"},
{"id":"1111","place_id":"ChIJ_xpIMpB2bjQR47D5jjJMygI","title":"轉角烘焙美食","lat":"22.99021089999999","lng":"120.2175435","address":"台南東區勝利路51號","city":"台南"},
{"id":"1112","place_id":"ChIJDyquAo52bjQRrUC4RJcTCtc","title":"府城魯味","lat":"22.9921296","lng":"120.2184974","address":"台南東區東寧路10號","city":"台南"},
{"id":"1113","place_id":"ChIJd3SKPpF2bjQRDZstzfXSNNs","title":"飛饗義法典藏料理","lat":"22.9910369","lng":"120.2214746","address":"台南東區長榮路二段272號","city":"台南"},
{"id":"1114","place_id":"ChIJeao3wJF2bjQROSL6QOoUDLM","title":"Mr.拉麵(台南店)","lat":"22.9916311","lng":"120.2180324","address":"台南東區勝利路54-1號","city":"台南"},
{"id":"1115","place_id":"ChIJEfpcG5F2bjQRF4invn8X_Q4","title":"李尚儒眼科診所","lat":"22.9902332","lng":"120.2204728","address":"台南東區長榮路二段75號","city":"台南"},
{"id":"1116","place_id":"ChIJz8RanZF2bjQRoF96QBI1NlQ","title":"長榮女中","lat":"22.9911165","lng":"120.2211482","address":"台南東區長榮路二段135號","city":"台南"},
{"id":"1117","place_id":"ChIJu4m8HJF2bjQRjCs4WiAuL2w","title":"甲林鐵板燒","lat":"22.9901","lng":"120.2202116","address":"台南東區長榮路二段67號","city":"台南"},
{"id":"1118","place_id":"ChIJ284nGJB2bjQROzl82bl2HEY","title":"臺南市私立光華高級中學","lat":"22.988612","lng":"120.21739","address":"台南東區勝利路41號","city":"台南"},
{"id":"1119","place_id":"ChIJAfK8FpF2bjQRF5y7K-B4qps","title":"葉明宏外科诊所","lat":"22.9907031","lng":"120.220694","address":"台南東區長榮路二段101號","city":"台南"},
{"id":"1120","place_id":"ChIJI7CCV5B2bjQREYMLLloujoU","title":"格那修手作蛋糕","lat":"22.9893888","lng":"120.2194907","address":"台南東區懷恩街2-10號","city":"台南"},
{"id":"1121","place_id":"ChIJizZL6ZF2bjQR8R_vc1Er-4Y","title":"GUSO鍋燒專賣店","lat":"22.9920121","lng":"120.2175886","address":"台南東區勝利路91號","city":"台南"},
{"id":"1122","place_id":"ChIJ7WXRwZF2bjQRYp7V7JdMVCc","title":"波哥茶飲台南勝利店","lat":"22.9918083","lng":"120.2178808","address":"台南東區勝利路58號","city":"台南"},
{"id":"1123","place_id":"ChIJxzAF-5B2bjQRZ2ahQVpK--w","title":"您好小火鍋","lat":"22.9893832","lng":"120.220144","address":"台南東區長榮路二段154號","city":"台南"},
{"id":"1124","place_id":"ChIJz4uYwJF2bjQRxE0krffRgjI","title":"風味屋美食館","lat":"22.9913373","lng":"120.2184343","address":"台南東區勝利路52巷22號","city":"台南"},
{"id":"1125","place_id":"ChIJSb3F_pB2bjQRNlCWcj_V-bM","title":"義美食品（台南長榮門市）","lat":"22.989506","lng":"120.2198071","address":"台南東區長榮路二段37號","city":"台南"},
{"id":"1126","place_id":"ChIJbSwrE492bjQRkhC-LdiARJQ","title":"7-ELEVEN 慶東門市","lat":"22.9910891","lng":"120.2165808","address":"台南東區青年路416號","city":"台南"},
{"id":"1127","place_id":"ChIJc6RZhMB2bjQRvUWYb18hZYo","title":"Panasonic","lat":"22.99597039999999","lng":"120.2316355","address":"台南東區東光路二段28號","city":"台南"},
{"id":"1128","place_id":"ChIJk38Ekr92bjQRSbDMi0lRd8s","title":"Good Night Tainan B&","lat":"22.9951538","lng":"120.2299737","address":"台南4F., No. 131, Dongping Road East District, Tainan City Tainan Area","city":"台南"},
{"id":"1129","place_id":"ChIJC-MtscF2bjQROkYalS2n98M","title":"南洋小館","lat":"22.995406","lng":"120.229987","address":"台南東區東平路134號","city":"台南"},
{"id":"1130","place_id":"ChIJNXanwMB2bjQR0KvowyvFVcI","title":"雪克藍餐飲屋 SHAKE BLUE","lat":"22.9965979","lng":"120.2328252","address":"台南東區莊敬路183號","city":"台南"},
{"id":"1131","place_id":"ChIJJyIrd792bjQRCI_LBEKzMco","title":"佳一家庭診所","lat":"22.994723","lng":"120.2314339","address":"台南東區東光路一段132號","city":"台南"},
{"id":"1132","place_id":"ChIJ5xiczMB2bjQRQRQdAfHxpMQ","title":"羅望子泰式料理","lat":"22.9968193","lng":"120.2337521","address":"台南東區中華東路一段80巷11弄2號莊敬里","city":"台南"},
{"id":"1133","place_id":"ChIJ3wEzBMB2bjQRiEhQ0FVuwtE","title":"耶拉","lat":"22.9965691","lng":"120.228723","address":"台南東區光明街189號","city":"台南"},
{"id":"1134","place_id":"ChIJfVLG8Jp2bjQRMPz_M-N5YWo","title":"莊惠君中醫診所","lat":"22.9949415","lng":"120.2317216","address":"台南東區東平路71號","city":"台南"},
{"id":"1135","place_id":"ChIJX7bmer92bjQRkrpk6tTaAy0","title":"亞頓牙醫診所 Ardent Dental","lat":"22.9948663","lng":"120.2319352","address":"台南東區東平路65號","city":"台南"},
{"id":"1136","place_id":"ChIJ9_u7nYp2bjQRT4uegImu2oM","title":"永暘電腦資訊有限公司","lat":"22.9965987","lng":"120.2301487","address":"台南東區東興路316號2F","city":"台南"},
{"id":"1137","place_id":"ChIJ3RDV3LB2bjQRL4auyXgf5lU","title":"異色引誘戀豆坊","lat":"22.9963279","lng":"120.2316155","address":"台南東區東光路二段42-1號","city":"台南"},
{"id":"1138","place_id":"ChIJsUq3icB2bjQRKzKJ6fVT8jU","title":"Eye Hostel","lat":"22.9964768","lng":"120.231191","address":"台南東區東光路二段55巷1號","city":"台南"},
{"id":"1139","place_id":"ChIJ0XEB79V2bjQRulI4KRg64wQ","title":"好粥對麵 (台南店)","lat":"22.9963391","lng":"120.2314185","address":"台南東區東光路二段47號","city":"台南"},
{"id":"1140","place_id":"ChIJJQP49MB2bjQRFmWXHP1vEnY","title":"盛群機電有限公司","lat":"22.9970851","lng":"120.2313125","address":"台南東區東光路二段77巷2號","city":"台南"},
{"id":"1141","place_id":"ChIJSRb98sB2bjQRa-jO_6uyHWo","title":"宜祥顧問股份有限公司","lat":"22.9969441","lng":"120.231687","address":"台南東區東光路二段76號","city":"台南"},
{"id":"1142","place_id":"ChIJ08ArgcB2bjQRQPLexuC9_c0","title":"寓見貓。貓旅館","lat":"22.9958125","lng":"120.2313088","address":"台南東區東光路二段21號","city":"台南"},
{"id":"1143","place_id":"ChIJX4Mb8sB2bjQRsFzVKAhG7Do","title":"8cH","lat":"22.9971016","lng":"120.2317366","address":"台南東區東光路二段80號","city":"台南"},
{"id":"1144","place_id":"ChIJo8wygsB2bjQRKelxL0Vbxv0","title":"明豐機車板金所","lat":"22.995854","lng":"120.231701","address":"台南東區東光路二段14巷1號","city":"台南"},
{"id":"1145","place_id":"ChIJ14tnOOh2bjQR_SnTMdt_VrU","title":"富利安企業股份有限公司","lat":"23.00537","lng":"120.22684","address":"台南北區開南街201巷17號","city":"台南"},
{"id":"1146","place_id":"ChIJf7yUPeh2bjQRiLtE4xunUcA","title":"寶仁國小","lat":"23.0057969","lng":"120.227369","address":"台南號, No. 6, 開南街211巷, 北區","city":"台南"},
{"id":"1147","place_id":"ChIJh4CWcuh2bjQRovIdpyKzPqQ","title":"富野具械有限公司","lat":"23.0066822","lng":"120.2266491","address":"台南北區開南街143巷50弄26號","city":"台南"},
{"id":"1148","place_id":"ChIJeQJdpOl2bjQRDTNIegCX98M","title":"舒活俱樂部","lat":"23.0039773","lng":"120.2255452","address":"台南北區林森路三段140巷20號","city":"台南"},
{"id":"1149","place_id":"ChIJIRlq1ud2bjQRu8MiN5hbR14","title":"華成藥局","lat":"23.007582","lng":"120.2257539","address":"台南北區南園街111號","city":"台南"},
{"id":"1150","place_id":"ChIJeaHhvul2bjQRBxEFJYcb058","title":"重興社區活動中心","lat":"23.0036362","lng":"120.2266478","address":"台南北區東豐路451巷169號","city":"台南"},
{"id":"1151","place_id":"ChIJabRdf-h2bjQRUMRpSCKmg2s","title":"來來自助餐","lat":"23.0074861","lng":"120.2255889","address":"台南北區南園街124號","city":"台南"},
{"id":"1152","place_id":"ChIJHb3h1ud2bjQR7i2w_mBIOyA","title":"沁佃牙醫診所","lat":"23.0077158","lng":"120.2258343","address":"台南北區南園街107之3號","city":"台南"},
{"id":"1153","place_id":"ChIJi031QOp2bjQRKljnIH97WoI","title":"ㄆㄤㄆㄤ雞蛋糕","lat":"23.0076941","lng":"120.2258593","address":"台南北區南園街107號","city":"台南"},
{"id":"1154","place_id":"ChIJGy2J0ch2bjQRZvMTE93uaso","title":"台南防身術學院 Vovinam Tain","lat":"23.0035195","lng":"120.2265603","address":"台南北區東豐路451巷169號710台南北區","city":"台南"},
{"id":"1155","place_id":"ChIJncuY1ud2bjQR32ei-TfwJjw","title":"豪億企業社","lat":"23.0077385","lng":"120.2256024","address":"台南北區南園街103號","city":"台南"},
{"id":"1156","place_id":"ChIJret5iud2bjQRpi3Hq5WYVMk","title":"媽咪寶貝托嬰中心","lat":"23.007729","lng":"120.227704","address":"台南北區南園街127巷50號","city":"台南"},
{"id":"1157","place_id":"ChIJScbr0vV2bjQRVw5pzVS5dDk","title":"馬修嚴選優格_公園門市","lat":"23.00529","lng":"120.207509","address":"台南北區公園北路156-1號","city":"台南"},
{"id":"1158","place_id":"ChIJIdzIx4x2bjQRJeMwp0BfNyM","title":"台新銀行ATM","lat":"23.0043959","lng":"120.2105221","address":"台南北區公園北路131號","city":"台南"},
{"id":"1159","place_id":"ChIJqcCFPfR2bjQRwomDRQcFUoE","title":"郭俊鋐牙醫診所","lat":"23.004659","lng":"120.2094099","address":"台南北區公園北路163號","city":"台南"},
{"id":"1160","place_id":"ChIJ7UzEBPR2bjQRBkGBGRQJinY","title":"Ballon 輕 甜點工坊","lat":"23.0049174","lng":"120.2102164","address":"台南北區公園北路96巷2之3號","city":"台南"},
{"id":"1161","place_id":"ChIJZ1Zt6WR2bjQRNzPYYyIaN5Q","title":"邱家小卷米粉","lat":"22.9935564","lng":"120.1974872","address":"台南中西區國華街三段5號","city":"台南"},
{"id":"1162","place_id":"ChIJnftY6WR2bjQRyT2f7tkQeIY","title":"江水號","lat":"22.9933262","lng":"120.1977253","address":"台南中西區國華街三段16巷13號","city":"台南"},
{"id":"1163","place_id":"ChIJ__E5P2N2bjQRcTDWQl0jQQM","title":"小林煎餅 -台南門市部","lat":"22.9921107","lng":"120.2009165","address":"台南中西區中正路89號","city":"台南"},
{"id":"1164","place_id":"ChIJQROa52Z2bjQRZhtrL1YtunU","title":"泰成水果店","lat":"22.9944661","lng":"120.1971469","address":"台南中西區正興街80號","city":"台南"},
{"id":"1165","place_id":"ChIJkSAiw2R2bjQRs511lrV4jSY","title":"黑橋牌 《中正店》","lat":"22.9931369","lng":"120.1972625","address":"台南中西區中正路220號","city":"台南"},
{"id":"1166","place_id":"ChIJh9dEl3x2bjQRzqsKtVvfsqU","title":"鄭記蔥肉餅-西門店","lat":"22.992553","lng":"120.1983982","address":"台南中西區西門路二段119號","city":"台南"},
{"id":"1167","place_id":"ChIJAAAAAAAAAAAREn7a4cStkww","title":"Panashop 東隆電器 - 中正門市","lat":"22.9922494","lng":"120.2003408","address":"台南中西區中正路105號","city":"台南"},
{"id":"1168","place_id":"ChIJDxWyPWJ2bjQREfZGe5xTpeM","title":"愛客發商務旅館-台南館","lat":"22.9953029","lng":"120.2036026","address":"台南中西區忠義路二段145號8f","city":"台南"},
{"id":"1169","place_id":"ChIJq-hjV312bjQRc2uqPnxTEwg","title":"窄門咖啡館","lat":"22.9896821","lng":"120.2047832","address":"台南中西區南門路67號2F","city":"台南"},
{"id":"1170","place_id":"ChIJUTvL-Id2bjQRn6zCnvsOtS4","title":"保哥黑輪","lat":"22.98999999999999","lng":"120.205","address":"台南中西區府前路一段196巷25號","city":"台南"},
{"id":"1171","place_id":"ChIJG3mSXX12bjQR3fbtCNTeg3s","title":"克林台包","lat":"22.9891263","lng":"120.2047623","address":"台南中西區府前路一段218號","city":"台南"},
{"id":"1172","place_id":"ChIJKy9RUYh2bjQRXcCOhcQOXjI","title":"椿之味薏仁湯","lat":"22.9921251","lng":"120.2072935","address":"台南中西區青年路68號","city":"台南"},
{"id":"1173","place_id":"ChIJ8zMZVIh2bjQRLNIeghOvURY","title":"蜜桃香楊桃湯","lat":"22.9921666","lng":"120.2077831","address":"台南中西區青年路71號","city":"台南"},
{"id":"1174","place_id":"ChIJmTu-dIh2bjQRQFYpbONHLQQ","title":"台灣2元黑輪","lat":"22.9902419","lng":"120.2066041","address":"台南中西區開山路74號","city":"台南"},
{"id":"1175","place_id":"ChIJJw96dIh2bjQRwJC5vTPBqEA","title":"孔廟商圈","lat":"22.990087","lng":"120.2059868","address":"台南中西區府中街","city":"台南"},
{"id":"1176","place_id":"ChIJf-iXWX12bjQR54SNGCvodIY","title":"艸祭Book inn","lat":"22.98955","lng":"120.204833","address":"台南中西區南門路71號","city":"台南"},
{"id":"1177","place_id":"ChIJGwsbZmJ2bjQRzVsgkZNHXAY","title":"臺灣首廟天壇","lat":"22.9937599","lng":"120.2041685","address":"台南中西區忠義路二段84巷16號","city":"台南"},
{"id":"1178","place_id":"ChIJ93_yAYp2bjQR4GqkifQ6Z54","title":"小南天生活輕旅","lat":"22.995626","lng":"120.205501","address":"台南中西區忠義路二段158巷74號","city":"台南"},
{"id":"1179","place_id":"ChIJVc3jimF2bjQRv9rMgr44NIg","title":"劍橋飯店台南館","lat":"22.9962954","lng":"120.2037179","address":"台南中西區民族路二段271號700","city":"台南"},
{"id":"1180","place_id":"ChIJFU-rqIl2bjQRyyL1zmacA-w","title":"小巷裡的拾壹號","lat":"22.99313399999999","lng":"120.2076369","address":"台南中西區衛民街143巷11號","city":"台南"},
{"id":"1181","place_id":"ChIJMzGFA4x2bjQRtGHRYfkERS4","title":"Panasonic","lat":"22.995981","lng":"120.205446","address":"台南中西區民族路二段122號","city":"台南"},
{"id":"1182","place_id":"ChIJwxaSe4l2bjQRTHypV4Ct-UA","title":"東亞樓大飯店","lat":"22.9946153","lng":"120.208508","address":"台南中西區中山路100號","city":"台南"},
{"id":"1183","place_id":"ChIJuYqMZnt2bjQRd9iCiSqNvJE","title":"奉茶","lat":"22.993538","lng":"120.2054006","address":"台南中西區公園路8號","city":"台南"},
{"id":"1184","place_id":"ChIJ1ZIKf4t2bjQR6tdUl5QWxhM","title":"大立大飯店","lat":"22.9964639","lng":"120.205071","address":"台南中西區中成路6號","city":"台南"},
{"id":"1185","place_id":"ChIJCclnLox2bjQRvcJ74ljWZe0","title":"騷烤家","lat":"22.9944786","lng":"120.2133076","address":"台南東區前鋒路122號","city":"台南"},
{"id":"1186","place_id":"ChIJ2Y_FXI52bjQROkirYIszRl4","title":"綠帕克咖啡館PARKVIEW","lat":"22.9919444","lng":"120.2144444","address":"台南東區育樂街250號","city":"台南"},
{"id":"1187","place_id":"ChIJvy2fNIl2bjQROg8gsGEO-u8","title":"湯婆婆拉麵","lat":"22.9927976","lng":"120.2108428","address":"台南中西區衛民街57號","city":"台南"},
{"id":"1188","place_id":"ChIJCbDlhI52bjQRn91DGQJrnpE","title":"LA BOTTEGA","lat":"22.993539","lng":"120.213142","address":"台南東區前鋒路104號","city":"台南"},
{"id":"1189","place_id":"ChIJY4o2-It2bjQRXy9Mjj7qX2E","title":"花見小路","lat":"22.9949629","lng":"120.21072","address":"台南中西區北門路一段123巷48-1號","city":"台南"},
{"id":"1190","place_id":"ChIJRdeDNIl2bjQR4j_9P-KXL4I","title":"跳舞的羊咖啡豆專賣店","lat":"22.9927593","lng":"120.2106698","address":"台南中西區衛民街59號","city":"台南"},
{"id":"1191","place_id":"ChIJVZTz4I52bjQRQX7skOrdDEg","title":"義豐冬瓜茶青年店","lat":"22.9915867","lng":"120.2124428","address":"台南東區青年路237號","city":"台南"},
{"id":"1192","place_id":"ChIJ1UX9zY12bjQRqTVzZO9oy70","title":"凱吉思","lat":"22.9944973","lng":"120.2140763","address":"台南東區民族路一段70號","city":"台南"},
{"id":"1193","place_id":"ChIJh3A0uI52bjQRJLONVoCmtwQ","title":"光南大批發","lat":"22.9931835","lng":"120.211904","address":"台南東區北門路一段146號","city":"台南"},
{"id":"1194","place_id":"ChIJtwbpTYl2bjQRhO-HieytvVU","title":"惠比壽鯛魚燒","lat":"22.9938036","lng":"120.210739","address":"台南中西區萬昌街145號","city":"台南"},
{"id":"1195","place_id":"ChIJ-SFY4o52bjQRMDLP-b_L8iY","title":"江西風味外省麵","lat":"22.9915981","lng":"120.2128296","address":"台南東區青年路257號","city":"台南"},
{"id":"1196","place_id":"ChIJ32kFg452bjQRZYKmrBE0cGw","title":"韋家乾麵","lat":"22.9936064","lng":"120.2131496","address":"台南東區前鋒路110號","city":"台南"},
{"id":"1197","place_id":"ChIJawGn_4t2bjQRK2AGrUnetag","title":"陳記真正紅燒土魠","lat":"22.9946328","lng":"120.2107009","address":"台南中西區民族路二段46號","city":"台南"},
{"id":"1198","place_id":"ChIJmUbVS4l2bjQRKkosvvrsSas","title":"咖啡客運","lat":"22.9937914","lng":"120.2107073","address":"台南中西區萬昌街143號","city":"台南"},
{"id":"1199","place_id":"ChIJeToaFIx2bjQRlLJYbyzWFr4","title":"成隆科技通訊","lat":"22.9952437","lng":"120.2119963","address":"台南東區北門路一段276號","city":"台南"},
{"id":"1200","place_id":"ChIJoWB02o52bjQRkLQ9n8rfYMk","title":"成功書局","lat":"22.9918913","lng":"120.2117973","address":"台南東區北門路一段104號","city":"台南"},
{"id":"1201","place_id":"ChIJewfhA4x2bjQRyMSugZWOlLc","title":"遊戲護照","lat":"22.9946091","lng":"120.211251","address":"台南中西區民族路二段14號","city":"台南"},
{"id":"1202","place_id":"ChIJyeyC9It2bjQRhTVSz6Mp29A","title":"鬥牛士二鍋中山店","lat":"22.9955969","lng":"120.2100636","address":"台南中西區中山路166號8樓","city":"台南"},
{"id":"1203","place_id":"ChIJDSN47ot2bjQRNuMkaylb9Qs","title":"斑鳩的窩","lat":"22.9955969","lng":"120.2100636","address":"台南中西區中山路166號9樓","city":"台南"},
{"id":"1204","place_id":"ChIJyeyC9It2bjQRJ3ooaDY30IU","title":"星巴克（台南門市）","lat":"22.9956456","lng":"120.2101266","address":"台南中西區中山路166號","city":"台南"},
{"id":"1205","place_id":"ChIJRQGqdot2bjQRjMxjwBd75Qo","title":"拿坡里披薩","lat":"22.9977921","lng":"120.209693","address":"台南北區成功路12號","city":"台南"},
{"id":"1206","place_id":"ChIJeXXmp4t2bjQRIchXeQ9Z1k0","title":"義美食品（台南成功門市）","lat":"22.9976535","lng":"120.2086885","address":"台南中西區成功路67號","city":"台南"},
{"id":"1207","place_id":"ChIJL5ptTfN2bjQRcFYK8ZgAxYQ","title":"燕賓大旅社","lat":"22.999739","lng":"120.2117319","address":"台南北區富北街84號","city":"台南"},
{"id":"1208","place_id":"ChIJ-6toWYt2bjQRuZ9DxoqwGos","title":"沙易資訊股份有限公司","lat":"22.9985078","lng":"120.2120791","address":"台南北區北忠街7號","city":"台南"},
{"id":"1209","place_id":"ChIJIaZyeIx2bjQR1Gz0RdIGl6w","title":"台南志光公職補習班\/高普考\/地方特考\/初","lat":"22.9963939","lng":"120.2107399","address":"台南中西區中山路195號","city":"台南"},
{"id":"1210","place_id":"ChIJxz61GBh0bjQRw4Am_3wlOYI","title":"新朝代飯店","lat":"22.9980758","lng":"120.20788","address":"台南北區成功路46號","city":"台南"},
{"id":"1211","place_id":"ChIJc4kmmIl2bjQR1R5TeNkCi_w","title":"邊疆燒烤","lat":"22.997622","lng":"120.206461","address":"台南中西區公園路131號","city":"台南"},
{"id":"1212","place_id":"ChIJqZWRZYB2bjQRfQNQumW0gS8","title":"秋澄壽喜燒專門店","lat":"22.9976739","lng":"120.2066008","address":"台南中西區公園路131號2樓","city":"台南"},
{"id":"1213","place_id":"ChIJe_ijQYp2bjQR3ckMk4Z_T2w","title":"赤嵌里","lat":"22.996933","lng":"120.206708","address":"台南台南市中西區","city":"台南"},
{"id":"1214","place_id":"ChIJZ655uIt2bjQRfnwRGhDdz8Y","title":"衛生福利部 臺南醫院","lat":"22.9960707","lng":"120.2088778","address":"台南中西區中山路125號","city":"台南"},
{"id":"1215","place_id":"ChIJ4cmG32F2bjQRmaDPWXrQxYU","title":"席瑪朵咖啡烘培棧(中成店)","lat":"22.997242","lng":"120.204913","address":"台南中西區中成路25號","city":"台南"},
{"id":"1216","place_id":"ChIJj23fiYp2bjQRXAvxQDxNm4k","title":"英代大飯店","lat":"22.9979129","lng":"120.2059546","address":"台南中西區觀亭街81號","city":"台南"},
{"id":"1217","place_id":"ChIJcaXWfop2bjQR2X__wElEg3g","title":"おやじ歐野基串焼き屋台","lat":"22.9980249","lng":"120.2053095","address":"台南中西區中成路56號","city":"台南"},
{"id":"1218","place_id":"ChIJ97kKE4t2bjQRVpYlD359cLY","title":"GO STAY dining room","lat":"22.9985445","lng":"120.2090593","address":"台南北區成功路22巷20號","city":"台南"},
{"id":"1219","place_id":"ChIJ6dH3M_N2bjQRK1PGRWh5O7o","title":"格上租車 台南北門站\/納智捷體驗站","lat":"22.999676","lng":"120.212529","address":"台南北區北門路二段111號","city":"台南"},
{"id":"1220","place_id":"ChIJZ9niV_N2bjQRMwgkNF9A7fY","title":"7-ELEVEN 華園門市","lat":"23.0004287","lng":"120.2109278","address":"台南北區公園南路71號","city":"台南"},
{"id":"1221","place_id":"ChIJxa8H9Ix2bjQRKdv49pKiokM","title":"爭鮮 GOGO -台南店","lat":"22.9965924","lng":"120.2122662","address":"台南東區北門路二段2號近台南火車站","city":"台南"},
{"id":"1222","place_id":"ChIJJ6u_8Ix2bjQR4XrYlqWTK7k","title":"台灣鐵路管理局台南火車站","lat":"22.997144","lng":"120.212966","address":"台南東區北門路二段4號","city":"台南"},
{"id":"1223","place_id":"ChIJvbZj_ox2bjQRca2ZcyZF78g","title":"Shanghai Pavilion 醉月","lat":"22.996439","lng":"120.21433","address":"台南東區大學路西段89號38樓","city":"台南"},
{"id":"1224","place_id":"ChIJB8c7pvR2bjQRtQwHdqx87Y0","title":"台南公園","lat":"23.0024696","lng":"120.2116084","address":"台南北區公園南路89號","city":"台南"},
{"id":"1225","place_id":"ChIJJQb_qPR2bjQRGnOd4th9uFI","title":"東區焦糖煉乳包心粉圓（台南旗艦店）","lat":"23.0004101","lng":"120.210692","address":"台南北區公園南路77號","city":"台南"},
{"id":"1226","place_id":"ChIJrzLjt4x2bjQRlhsU9tasgcU","title":"統聯客運","lat":"23.0026522","lng":"120.209465","address":"台南北區公園路291號","city":"台南"},
{"id":"1227","place_id":"ChIJOwUI6_R2bjQRbiqlTHOOulY","title":"臺南市公共腳踏車-台南公園站","lat":"23.0017499","lng":"120.2092601","address":"台南北區704台灣台南市北區公園路公園南路","city":"台南"},
{"id":"1228","place_id":"ChIJjQaFZfR2bjQRTtf0P1ZfivI","title":"正裕機車大賣場","lat":"23.003426","lng":"120.2099764","address":"台南北區公園路307號","city":"台南"},
{"id":"1229","place_id":"ChIJb0MayIx2bjQR3Rwy_SrymUk","title":"統聯客運 - 北門站","lat":"23.0019753","lng":"120.2091566","address":"台南北區公園路281號","city":"台南"},
{"id":"1230","place_id":"ChIJbRX8bvR2bjQREKZXu5muZN4","title":"志誠醫院(耳鼻喉科\/泌尿科台南專業醫療院","lat":"23.0035883","lng":"120.2100355","address":"台南北區公園路315-1號","city":"台南"},
{"id":"1231","place_id":"ChIJq9zeV_N2bjQRMfTeGpt7g4g","title":"中國信託商業銀行ATM 統一華園","lat":"23.0004232","lng":"120.210895","address":"台南北區公園南路71號","city":"台南"},
{"id":"1232","place_id":"ChIJV7VNpNWFbjQRWoPOdYhBwPc","title":"台南汽車借款免留車","lat":"23.0004369","lng":"120.2105648","address":"台南北區公園南路89號","city":"台南"},
{"id":"1233","place_id":"ChIJwzfJV_N2bjQR4QnxzkpWfEI","title":"建美裁剪設計補習班","lat":"23.000371","lng":"120.210951","address":"台南北區公園南路71號","city":"台南"},
{"id":"1234","place_id":"ChIJwzfJV_N2bjQR8sPZmSIaHdY","title":"伯特利實業社","lat":"23.000371","lng":"120.210951","address":"台南北區公園南路71號2樓號","city":"台南"},
{"id":"1235","place_id":"ChIJO7URrPR2bjQRL9heZsNBbDg","title":"路加多元計程車包車Tainan prof","lat":"23.000225","lng":"120.210469","address":"台南北區西華街105號8號樓之8","city":"台南"},
{"id":"1236","place_id":"ChIJCY-Q6fR2bjQRwJRSDyQrlW8","title":"三陽機車SYM-鑫龍車業","lat":"23.0013355","lng":"120.2087888","address":"台南北區公園路287號","city":"台南"},
{"id":"1237","place_id":"ChIJBSl13nt2bjQR7d_-p0F0Ihg","title":"新光三越台南中山店","lat":"22.9952166","lng":"120.2100268","address":"台南中西區中山路162號","city":"台南"},
{"id":"1238","place_id":"ChIJtbko7It2bjQRNsIWoZ2QMf8","title":"瓦城泰國料理 - 台南三越中山店","lat":"22.9954984","lng":"120.2098291","address":"台南中西區中山路162號12樓","city":"台南"},
{"id":"1239","place_id":"ChIJs9NY2I12bjQRy0DddtFYpuo","title":"黑工號嫩仙草","lat":"22.9937748","lng":"120.2147495","address":"台南東區育樂街185號","city":"台南"},
{"id":"1240","place_id":"ChIJJe3oXI52bjQRJPijdeTkLFg","title":"日喜","lat":"22.9920921","lng":"120.2143722","address":"台南東區育樂街238號號","city":"台南"},
{"id":"1241","place_id":"ChIJw4ugVo52bjQRUGgbeMtfDOw","title":"307 Upstair","lat":"22.9914951","lng":"120.2140489","address":"台南東區青年路307號","city":"台南"},
{"id":"1242","place_id":"ChIJdeoYXY52bjQRV7O9ReAql80","title":"花語鐵板燒","lat":"22.9922612","lng":"120.2143909","address":"台南東區育樂街236號","city":"台南"},
{"id":"1243","place_id":"ChIJn0zXS452bjQRDbLQ_KRgQlU","title":"私立新樓幼稚園","lat":"22.9912192","lng":"120.2148507","address":"台南東區青年路360號","city":"台南"},
{"id":"1244","place_id":"ChIJcRRc7o52bjQRHrN5WUGxH7E","title":"水餃之家","lat":"22.9923019","lng":"120.2127694","address":"台南東區前鋒路93號","city":"台南"},
{"id":"1245","place_id":"ChIJt3A0xY12bjQRDlQycYH7sh0","title":"統一機化乾洗店 東區 成大一中附近 代洗","lat":"22.9944495","lng":"120.214544","address":"台南東區民族路一段54號","city":"台南"},
{"id":"1246","place_id":"ChIJf3dhHI52bjQRfTJtvANgNMs","title":"新貴科技","lat":"22.9927148","lng":"120.2157095","address":"台南東區東寧路西段52號","city":"台南"},
{"id":"1247","place_id":"ChIJ6YNM_I52bjQRXu1ripwIDVM","title":"潮流店","lat":"22.9915493","lng":"120.2132983","address":"台南中西區青年路","city":"台南"},
{"id":"1248","place_id":"ChIJZ-toXWV2bjQRNIQFVdzWKAI","title":"綠森活建設股份有限公司","lat":"22.9905305","lng":"120.2154412","address":"台南東區民族路一段37號","city":"台南"},
{"id":"1249","place_id":"ChIJX_TtFY92bjQRJSAHlPsEzyU","title":"布老虎廚坊","lat":"22.9901709","lng":"120.2125727","address":"台南東區前鋒路35巷11號","city":"台南"},
{"id":"1250","place_id":"ChIJCwmaL492bjQR15_dkJdCsV8","title":"食香客雞會站雞排茶飲專賣台南北門店","lat":"22.990919","lng":"120.211435","address":"台南中西區北門路一段81號","city":"台南"},
{"id":"1251","place_id":"ChIJ4ZMEzI52bjQRL5UMdnbAmoQ","title":"老唐牛肉麵店","lat":"22.99270139999999","lng":"120.2113821","address":"台南中西區興華街45號","city":"台南"},
{"id":"1252","place_id":"ChIJXfyXf4h2bjQRT6b1LpFnkZ4","title":"M&M音樂廚房","lat":"22.9898395","lng":"120.2077942","address":"台南中西區城隍街23號","city":"台南"},
{"id":"1253","place_id":"ChIJ5VuXVoh2bjQR1zv8Yvn8JBE","title":"萬川號餅舖","lat":"22.9919988","lng":"120.2076422","address":"台南中西區民權路一段205號","city":"台南"},
{"id":"1254","place_id":"ChIJaWl8c4h2bjQRtS2L4ueUMz8","title":"永記虱目魚丸","lat":"22.9899835","lng":"120.2067683","address":"台南中西區開山路82之1號","city":"台南"},
{"id":"1255","place_id":"ChIJk4pbGIh2bjQRYuv4E3XSkNk","title":"錫鼓 Tin Drum","lat":"22.9904678","lng":"120.2075821","address":"台南中西區開山路35巷39弄5號","city":"台南"},
{"id":"1256","place_id":"ChIJqYi_rO52bjQRVf5X4vtGXcE","title":"浮游咖啡","lat":"22.9904512","lng":"120.2077718","address":"台南中西區府前路一段122巷81號","city":"台南"},
{"id":"1257","place_id":"ChIJb1d1DWN2bjQRmzpjYVJh5JE","title":"橋北屋日本家庭料理-忠義店","lat":"22.997637","lng":"120.204758","address":"台南中西區忠義路二段226號","city":"台南"},
{"id":"1258","place_id":"ChIJdVFPSmB2bjQRn2aXiBaj_gM","title":"台南葡吉麵包店-手工麵包 台南伴手禮推薦","lat":"22.9990134","lng":"120.203669","address":"台南北區成功路200號","city":"台南"},
{"id":"1259","place_id":"ChIJv4DxkWF2bjQRbgq0utUR2gc","title":"李媽媽民族鍋燒老店 Minzu Nabe","lat":"22.9971874","lng":"120.204328","address":"台南中西區忠義路二段197號","city":"台南"},
{"id":"1260","place_id":"ChIJRxlNjWF2bjQRbG86AvO0H00","title":"赤崁擔仔麵","lat":"22.9966014","lng":"120.2035797","address":"台南中西區民族路二段180號","city":"台南"},
{"id":"1261","place_id":"ChIJzdLpvmF2bjQRsqkahwWgpb4","title":"艾摩多手工杏仁豆腐\/台南伴手禮\/台南美食","lat":"22.9970972","lng":"120.2034306","address":"台南中西區赤崁東街26號","city":"台南"},
{"id":"1262","place_id":"ChIJbYl7d2F2bjQRnFdvyMBuZfI","title":"赤崁樓","lat":"22.997478","lng":"120.2025433","address":"台南中西區民族路二段212號","city":"台南"},
{"id":"1263","place_id":"ChIJj_2Vy192bjQR4Ny09A69OVU","title":"福相麻辣香鍋公園店","lat":"23.0022119","lng":"120.2039472","address":"台南北區公園南路281號","city":"台南"},
{"id":"1264","place_id":"ChIJ24pqEYh2bjQRgirpy-AQUDs","title":"清心福全公園南店-珍珠奶茶手搖飲料專賣店","lat":"23.0020166","lng":"120.2047041","address":"台南北區公園南路259號","city":"台南"},
{"id":"1265","place_id":"ChIJLwjbTPV2bjQRUC-1pe-Xdbw","title":"單車-ing","lat":"23.000924","lng":"120.2060454","address":"台南北區忠義路三段90號","city":"台南"},
{"id":"1266","place_id":"ChIJVyiZT4t2bjQRsCQBm8q5O7Q","title":"臺南西華堂","lat":"22.9994222","lng":"120.2100104","address":"台南北區北忠街92號","city":"台南"},
{"id":"1267","place_id":"ChIJcbRjpIx2bjQR1xP5M3G2VnM","title":"INDEX 南洋百貨(台南店)","lat":"22.9998404","lng":"120.2108271","address":"台南北區西華街42號","city":"台南"},
{"id":"1268","place_id":"ChIJGbidz5J2bjQR90Ibbe8DtEo","title":"國立成功大學地球科學系","lat":"22.9973776","lng":"120.2186409","address":"台南東區大學路1號","city":"台南"},
{"id":"1269","place_id":"ChIJ5UcU2ux2bjQRDi2u1SO9phI","title":"國立成功大學測量及空間資訊學系","lat":"22.9986472","lng":"120.2198306","address":"台南東區大學路1號","city":"台南"},
{"id":"1270","place_id":"ChIJCVOs0Ox2bjQReuKAEQvSFDo","title":"地殼變形監測與分析實驗室","lat":"22.9986047","lng":"120.2199112","address":"台南號 701 台南 市 東區 大學 路 1-3 號, No. 1-3, 大學路, 東區","city":"台南"},
{"id":"1271","place_id":"ChIJ217eKpN2bjQRdl-PauiLVBE","title":"國立成功大學化學系","lat":"22.9981196","lng":"120.2199652","address":"台南東區大學路1號","city":"台南"},
{"id":"1272","place_id":"ChIJldwCbY12bjQR99RMuhTScWs","title":"成大里","lat":"22.997066","lng":"120.215349","address":"台南台南市東區","city":"台南"}
]
}
]
